[{"business_id":"uncb1Q3l6yYMrStDK1RWyA","name":"Falafel King","address":"1504 Hancock St","city":"Quincy","state":"MA","postal_code":"02169","latitude":42.2481187,"longitude":-71.0014085,"stars":4.5,"review_count":172,"is_open":0,"attributes":{"BusinessAcceptsCreditCards":"True","WiFi":"u'no'","RestaurantsPriceRange2":"1","GoodForKids":"True","RestaurantsTakeOut":"True","NoiseLevel":"u'average'","RestaurantsAttire":"u'casual'","Caters":"True"},"categories":["MiddleEastern","Restaurants","Falafel","LocalFlavor","Mediterranean"],"hours":{"Monday":"11:0-21:0","Tuesday":"11:0-21:0","Wednesday":"11:0-21:0","Thursday":"11:0-21:0","Friday":"11:0-21:0","Saturday":"11:0-20:0"}},{"business_id":"oFKO7pvSMmSXlc0ytdxmYQ","name":"Galit's Treats Caf\u00e9 & Bakery","address":"749 Beacon St","city":"Newton Center","state":"MA","postal_code":"02459","latitude":42.3309157,"longitude":-71.1915683,"stars":4.5,"review_count":42,"is_open":1,"attributes":{"Alcohol":"'none'","GoodForKids":"True","WiFi":"u'no'","RestaurantsTakeOut":"True","OutdoorSeating":"True","Caters":"True","BusinessAcceptsCreditCards":"True","BikeParking":"True","WheelchairAccessible":"True"},"categories":["Desserts","Breakfast&Brunch","Bakeries","Coffee&Tea","Cafes","Food","Restaurants"],"hours":{"Tuesday":"9:0-14:0","Wednesday":"9:0-14:0","Thursday":"9:0-14:0","Friday":"9:0-14:0","Saturday":"9:0-14:0"}},{"business_id":"ls1AoPuZ4ff3YJMp88W4qg","name":"Alfredo's Italian Kitchen","address":"136 Newbury St","city":"Peabody","state":"MA","postal_code":"01960","latitude":42.5365452,"longitude":-70.9891689,"stars":3.5,"review_count":8,"is_open":0,"attributes":{"RestaurantsDelivery":"True","RestaurantsTakeOut":"True"},"categories":["Burgers","Pizza","Restaurants","Italian"],"hours":{"Monday":"11:0-22:0","Tuesday":"11:0-22:0","Wednesday":"11:0-22:0","Thursday":"11:0-22:0","Friday":"11:0-23:0","Saturday":"11:0-23:0","Sunday":"11:0-22:0"}},{"business_id":"qBDpPs3Wg7EmUI5XGeUEdA","name":"Fugakyu Japanese Cuisine","address":"1280 Beacon St","city":"Brookline","state":"MA","postal_code":"02446","latitude":42.342954,"longitude":-71.1193746429,"stars":4.0,"review_count":1214,"is_open":1,"attributes":{"BusinessAcceptsCreditCards":"True","HasTV":"True","GoodForKids":"True","RestaurantsGoodForGroups":"True","Alcohol":"'full_bar'","BYOBCorkage":"'no'","RestaurantsAttire":"'casual'","RestaurantsReservations":"True","WiFi":"u'free'","Corkage":"True","NoiseLevel":"u'average'","RestaurantsPriceRange2":"2","RestaurantsDelivery":"True","RestaurantsTakeOut":"True"},"categories":["SushiBars","Japanese","Restaurants"],"hours":{"Monday":"11:30-21:30","Tuesday":"11:30-21:30","Wednesday":"11:30-21:30","Thursday":"11:30-21:30","Friday":"11:30-21:30","Saturday":"11:30-21:30","Sunday":"11:30-21:30"}},{"business_id":"sA56zGbIZj2NoBR_HqkN-g","name":"Harvest Co-op","address":"3815 Washington St","city":"Jamaica Plain","state":"MA","postal_code":"02130","latitude":42.2977551,"longitude":-71.1165822,"stars":3.5,"review_count":42,"is_open":0,"attributes":{"RestaurantsTakeOut":"True","BikeParking":"True","BusinessAcceptsCreditCards":"True","RestaurantsPriceRange2":"2"},"categories":["Grocery","Delis","Food","HealthMarkets","SpecialtyFood","Restaurants"],"hours":{"Monday":"7:0-22:0","Tuesday":"7:0-22:0","Wednesday":"7:0-22:0","Thursday":"7:0-22:0","Friday":"7:0-22:0","Saturday":"7:0-22:0","Sunday":"7:0-22:0"}},{"business_id":"Eh8Lg3IZFK1xZ5B3Nwz_Pw","name":"Energize","address":"618 Washington St","city":"Brighton","state":"MA","postal_code":"02135","latitude":42.3504971266,"longitude":-71.1680724905,"stars":5.0,"review_count":108,"is_open":1,"attributes":{"RestaurantsPriceRange2":"1","BusinessAcceptsCreditCards":"True","BikeParking":"True","RestaurantsGoodForGroups":"True","WiFi":"u'free'","NoiseLevel":"u'quiet'","GoodForKids":"True","Caters":"True","RestaurantsAttire":"'casual'","WheelchairAccessible":"True","RestaurantsDelivery":"True","RestaurantsTakeOut":"True"},"categories":["OrganicStores","Food","Sandwiches","Salad","Coffee&Tea","JuiceBars&Smoothies","Vegan","AcaiBowls","Restaurants"],"hours":{"Tuesday":"8:0-14:30","Wednesday":"9:30-18:0","Thursday":"9:30-18:0","Friday":"9:30-18:0","Saturday":"9:30-18:0","Sunday":"9:30-18:0"}},{"business_id":"GiSHio-nOL7eULwMxtoATw","name":"Goosebeary's Food Truck","address":"","city":"Cambridge","state":"MA","postal_code":"02238","latitude":42.37,"longitude":-71.12,"stars":3.5,"review_count":38,"is_open":0,"attributes":{"RestaurantsGoodForGroups":"True","RestaurantsAttire":"'casual'","RestaurantsPriceRange2":"1","OutdoorSeating":"True","Alcohol":"'none'","RestaurantsTakeOut":"True","GoodForKids":"True"},"categories":["FoodStands","FoodTrucks","Restaurants","Food"],"hours":{"Monday":"11:0-15:0","Tuesday":"11:0-15:0","Wednesday":"11:0-15:0","Thursday":"11:0-15:0","Friday":"11:0-15:0"}},{"business_id":"UEEempEIz_RauLBqBBhY3Q","name":"Nashoba Brook Bakery Cafe","address":"288 Columbus Ave","city":"Boston","state":"MA","postal_code":"02116","latitude":42.3467543,"longitude":-71.0737392,"stars":4.5,"review_count":10,"is_open":0,"attributes":{"RestaurantsAttire":"'casual'","BusinessAcceptsCreditCards":"True","RestaurantsPriceRange2":"2"},"categories":["Bakeries","Food","Restaurants"],"hours":{"Monday":"7:0-17:30","Tuesday":"7:0-17:30","Wednesday":"7:0-17:30","Thursday":"7:0-17:30","Friday":"7:0-17:30","Saturday":"8:0-17:0","Sunday":"9:0-17:0"}},{"business_id":"4kTfzwqYQlKaJIa-O7p9lw","name":"Jake n JOES Sports Grille - Waltham","address":"70 Market Place Dr","city":"Waltham","state":"MA","postal_code":"02451","latitude":42.3792365646,"longitude":-71.2627471363,"stars":3.0,"review_count":200,"is_open":1,"attributes":{"RestaurantsReservations":"True","BikeParking":"True","OutdoorSeating":"True","RestaurantsGoodForGroups":"True","RestaurantsTakeOut":"True","WheelchairAccessible":"True","Caters":"True","RestaurantsDelivery":"True","GoodForKids":"True","RestaurantsAttire":"'casual'","WiFi":"u'free'","BusinessAcceptsCreditCards":"True","RestaurantsPriceRange2":"2","NoiseLevel":"'loud'","RestaurantsTableService":"True","HasTV":"True","Alcohol":"u'full_bar'","HappyHour":"True","Smoking":"u'outdoor'"},"categories":["American(New)","Gluten-Free","Food","Bars","Desserts","SportsBars","Nightlife","Restaurants","American(Traditional)"],"hours":{"Tuesday":"11:30-23:0","Wednesday":"11:30-23:0","Thursday":"11:0-17:0","Friday":"11:30-0:0","Saturday":"11:30-0:0","Sunday":"11:30-23:0"}},{"business_id":"EreK2vomkBNFHbjHKXyqNg","name":"Mr Chan's","address":"91 Middlesex Tpke","city":"Burlington","state":"MA","postal_code":"01803","latitude":42.4850224,"longitude":-71.2189362,"stars":3.5,"review_count":82,"is_open":0,"attributes":{"RestaurantsDelivery":"True","BusinessAcceptsCreditCards":"True","RestaurantsTakeOut":"True","HasTV":"True","RestaurantsReservations":"True","Caters":"True","RestaurantsGoodForGroups":"True","RestaurantsPriceRange2":"2","WiFi":"u'no'","GoodForKids":"True","NoiseLevel":"u'average'","BikeParking":"True","Alcohol":"u'beer_and_wine'","RestaurantsAttire":"u'casual'"},"categories":["Chinese","Japanese","Restaurants"],"hours":{"Monday":"11:30-21:30","Tuesday":"11:30-21:30","Wednesday":"11:30-21:30","Thursday":"11:30-21:30","Friday":"11:30-22:30","Saturday":"11:30-22:30","Sunday":"12:0-21:30"}},{"business_id":"gY7Xojx-Vu5DLSPYSsG4-Q","name":"Cajun & Cajun","address":"720 Atlantic Ave","city":"Boston","state":"MA","postal_code":"02111","latitude":42.351653,"longitude":-71.055497,"stars":2.5,"review_count":36,"is_open":1,"attributes":{"RestaurantsGoodForGroups":"True","BusinessAcceptsCreditCards":"True","GoodForKids":"True","Alcohol":"'none'","RestaurantsTakeOut":"True","RestaurantsAttire":"'casual'","WiFi":"u'no'","RestaurantsPriceRange2":"1","NoiseLevel":"u'very_loud'","HasTV":"True"},"categories":["Restaurants","FoodStands","Cajun\/Creole"],"hours":{"Monday":"10:0-22:0","Tuesday":"10:0-22:0","Wednesday":"10:0-22:0","Thursday":"10:0-22:0","Friday":"10:0-22:0","Saturday":"10:0-21:30","Sunday":"10:0-21:30"}},{"business_id":"w0IAMRHt7JzTA3uMnXZCWA","name":"Angelo's Pizza","address":"1 Beaumont St","city":"Canton","state":"MA","postal_code":"02021","latitude":42.163869,"longitude":-71.153401,"stars":3.5,"review_count":14,"is_open":0,"attributes":{"RestaurantsPriceRange2":"1","HasTV":"True","OutdoorSeating":"True","NoiseLevel":"u'quiet'","BikeParking":"True","GoodForKids":"True","RestaurantsTakeOut":"True","WiFi":"u'free'","RestaurantsDelivery":"True","WheelchairAccessible":"True","RestaurantsAttire":"u'casual'","Caters":"True","BusinessAcceptsCreditCards":"True"},"categories":["Restaurants","Pizza"],"hours":{"Tuesday":"11:0-21:0","Wednesday":"11:0-21:0","Thursday":"11:0-21:0","Friday":"11:0-21:0","Saturday":"11:0-21:0"}},{"business_id":"3mKCuLJtQM5XbWi7DypurQ","name":"black and orange bar and grill","address":"474 Main St","city":"Woburn","state":"MA","postal_code":"01801","latitude":42.4819247,"longitude":-71.1509323,"stars":3.5,"review_count":21,"is_open":0,"attributes":{"HasTV":"True","RestaurantsTakeOut":"True"},"categories":["Nightlife","Restaurants","American(Traditional)","Bars"],"hours":{"Monday":"6:0-20:30","Tuesday":"6:0-20:30","Wednesday":"6:0-20:30","Thursday":"6:0-20:30","Friday":"6:0-21:30","Saturday":"6:0-21:30","Sunday":"6:0-20:30"}},{"business_id":"9eihGDtCxuODZwUKDW3LhA","name":"On Rye Deli","address":"119 Washington St","city":"Norwell","state":"MA","postal_code":"02061","latitude":42.1710951,"longitude":-70.8767015,"stars":3.5,"review_count":37,"is_open":1,"attributes":{"WiFi":"u'free'","GoodForKids":"True","RestaurantsPriceRange2":"1","HasTV":"True","Caters":"True","RestaurantsTakeOut":"True","RestaurantsDelivery":"True","RestaurantsAttire":"u'casual'","BusinessAcceptsCreditCards":"True","NoiseLevel":"u'quiet'","OutdoorSeating":"True","RestaurantsGoodForGroups":"True","BikeParking":"True"},"categories":["Delis","Restaurants"],"hours":{"Monday":"9:0-15:0","Tuesday":"9:0-15:0","Wednesday":"9:0-15:0","Thursday":"9:0-15:0","Friday":"9:0-15:0","Saturday":"9:0-15:0"}},{"business_id":"45Opdnehep2a9-Vy7QY_Xg","name":"Sato II Restaurant","address":"147 Main St","city":"Stoneham","state":"MA","postal_code":"02180","latitude":42.4932891492,"longitude":-71.1008450626,"stars":3.5,"review_count":184,"is_open":1,"attributes":{"GoodForKids":"True","RestaurantsDelivery":"True","Alcohol":"u'full_bar'","RestaurantsTakeOut":"True","RestaurantsPriceRange2":"2","RestaurantsReservations":"True","BYOBCorkage":"'yes_free'","BusinessAcceptsCreditCards":"True","RestaurantsAttire":"'casual'","WiFi":"u'no'","NoiseLevel":"u'average'","RestaurantsGoodForGroups":"True","HasTV":"True"},"categories":["Restaurants","SushiBars","Chinese","Japanese"],"hours":{"Monday":"11:0-22:0","Tuesday":"11:0-22:0","Wednesday":"11:0-22:0","Thursday":"11:0-22:0","Friday":"11:0-23:0","Saturday":"11:0-23:0","Sunday":"12:0-22:0"}},{"business_id":"ySLTN8LRUzfPBxUyJrgXDQ","name":"Sat\u00e9 Grill-on-Wheels","address":"Dewey Sq","city":"Boston","state":"MA","postal_code":"02116","latitude":42.3529544299,"longitude":-71.0556435585,"stars":3.5,"review_count":81,"is_open":1,"attributes":{"GoodForKids":"True","RestaurantsTakeOut":"True","WiFi":"u'no'","NoiseLevel":"u'average'","RestaurantsPriceRange2":"1","BusinessAcceptsCreditCards":"True","RestaurantsAttire":"u'casual'"},"categories":["FoodStands","Restaurants","Chinese","Food","Szechuan","AsianFusion","StreetVendors"],"hours":{"Monday":"10:30-14:30","Tuesday":"10:30-14:30","Wednesday":"10:30-14:30","Thursday":"10:30-14:30","Friday":"10:30-15:0"}},{"business_id":"XcW4QCefnrnvVU6UEYNqRQ","name":"QQ Asian Grill","address":"240 Nashua Rd","city":"Billerica","state":"MA","postal_code":"01862","latitude":42.5390469,"longitude":-71.303293,"stars":4.5,"review_count":42,"is_open":0,"attributes":{"NoiseLevel":"u'average'","GoodForKids":"True","RestaurantsReservations":"True","RestaurantsGoodForGroups":"True","WiFi":"u'no'","RestaurantsTakeOut":"True","RestaurantsPriceRange2":"2","BusinessAcceptsCreditCards":"True","RestaurantsAttire":"u'casual'","BikeParking":"True"},"categories":["American(Traditional)","Restaurants","ChickenWings","Noodles","Chinese"],"hours":{"Monday":"11:0-20:30","Wednesday":"11:0-20:30","Thursday":"11:0-20:30","Friday":"11:0-20:30","Saturday":"11:0-20:30","Sunday":"11:0-20:0"}},{"business_id":"Qwy_JLJqfWpMHVRUJEfOGQ","name":"Stefani Gourmet Pizzeria","address":"263 Brookline St","city":"Cambridge","state":"MA","postal_code":"02139","latitude":42.3577044,"longitude":-71.1079115,"stars":2.5,"review_count":20,"is_open":0,"attributes":{"RestaurantsDelivery":"True","GoodForKids":"True","HasTV":"True","OutdoorSeating":"True","RestaurantsTakeOut":"True","BusinessAcceptsCreditCards":"True","RestaurantsPriceRange2":"1","Alcohol":"'none'","RestaurantsAttire":"'casual'"},"categories":["Pizza","Restaurants"],"hours":{"Monday":"11:0-22:0","Tuesday":"11:0-22:0","Wednesday":"11:0-22:0","Thursday":"11:0-22:0","Friday":"11:0-22:0","Saturday":"11:0-22:0"}},{"business_id":"WUW2q1wJ15SlYW2TojBrfA","name":"Pavement Coffeehouse","address":"1334 Boylston St","city":"Boston","state":"MA","postal_code":"02215","latitude":42.3442334895,"longitude":-71.0984968767,"stars":4.0,"review_count":141,"is_open":1,"attributes":{"OutdoorSeating":"True","RestaurantsGoodForGroups":"True","WheelchairAccessible":"True","RestaurantsDelivery":"True","NoiseLevel":"u'quiet'","BusinessAcceptsCreditCards":"True","RestaurantsAttire":"'casual'","RestaurantsPriceRange2":"2","GoodForKids":"True","RestaurantsTakeOut":"True","BikeParking":"True","Alcohol":"'none'","HasTV":"True","WiFi":"u'free'"},"categories":["Restaurants","Sandwiches","Coffee&Tea","Bagels","Food"],"hours":{"Monday":"7:0-19:0","Tuesday":"7:0-19:0","Wednesday":"7:0-19:0","Thursday":"7:0-19:0","Friday":"7:0-19:0","Saturday":"7:0-19:0","Sunday":"7:0-19:0"}},{"business_id":"WLUtB6dUhP616jGFXA3YKA","name":"Trail's End Cafe","address":"97 Lowell Rd","city":"Concord","state":"MA","postal_code":"01742","latitude":42.4633244899,"longitude":-71.3525062395,"stars":3.5,"review_count":192,"is_open":1,"attributes":{"NoiseLevel":"u'average'","RestaurantsPriceRange2":"2","GoodForKids":"True","RestaurantsAttire":"u'casual'","BikeParking":"True","BusinessAcceptsCreditCards":"True","Alcohol":"u'full_bar'","HasTV":"True","RestaurantsReservations":"True","RestaurantsTakeOut":"True","Caters":"True","RestaurantsGoodForGroups":"True","WiFi":"u'free'","OutdoorSeating":"True"},"categories":["American(New)","Cafes","Restaurants","ComfortFood"],"hours":{"Tuesday":"7:0-21:0","Wednesday":"7:0-21:0","Thursday":"7:0-22:0","Friday":"7:0-22:0","Saturday":"9:0-22:0","Sunday":"9:0-21:0"}},{"business_id":"_U29pRKPP1Lp6fhWJ-Sr5Q","name":"L&C Spanish Restaurant","address":"128 Harvard St","city":"Dorchester Center","state":"MA","postal_code":"02124","latitude":42.296431,"longitude":-71.0797918,"stars":3.5,"review_count":6,"is_open":1,"attributes":{"Caters":"True","BusinessAcceptsCreditCards":"True","WiFi":"u'no'","RestaurantsTakeOut":"True","RestaurantsDelivery":"True","NoiseLevel":"u'average'","RestaurantsAttire":"u'casual'","HasTV":"True"},"categories":["Restaurants","Spanish","EventPlanning&Services","Caterers","Caribbean","Dominican"],"hours":{"Monday":"8:0-20:0","Tuesday":"8:0-20:0","Wednesday":"8:0-20:0","Thursday":"8:0-20:0","Friday":"8:0-20:0","Saturday":"8:0-20:0","Sunday":"8:0-18:0"}},{"business_id":"dJKmNlmjBqbOccL1c6FEaQ","name":"Sunset Grill & Tap","address":"130 Brighton Ave","city":"Allston","state":"MA","postal_code":"02134","latitude":42.3527462,"longitude":-71.1315652,"stars":4.0,"review_count":1185,"is_open":0,"attributes":{"RestaurantsTakeOut":"True","RestaurantsDelivery":"True","RestaurantsGoodForGroups":"True","RestaurantsPriceRange2":"2","Alcohol":"'full_bar'","BYOBCorkage":"'no'","WiFi":"u'free'","BusinessAcceptsCreditCards":"True","BikeParking":"True","NoiseLevel":"u'loud'","HasTV":"True","RestaurantsTableService":"True","RestaurantsAttire":"'casual'","WheelchairAccessible":"True"},"categories":["Venues&EventSpaces","American(Traditional)","Nightlife","Steakhouses","EventPlanning&Services","Restaurants","BeerBar","Bars"],"hours":{"Monday":"11:30-1:0","Tuesday":"11:30-1:0","Wednesday":"11:30-1:0","Thursday":"11:30-1:0","Friday":"11:30-1:0","Saturday":"11:30-1:0","Sunday":"11:30-1:0"}},{"business_id":"PUZSvR-nEHlhEi0gSADu7w","name":"Piattini","address":"226 Newbury St","city":"Boston","state":"MA","postal_code":"02116","latitude":42.3496958,"longitude":-71.0812354,"stars":4.0,"review_count":857,"is_open":1,"attributes":{"RestaurantsTakeOut":"True","OutdoorSeating":"True","BusinessAcceptsCreditCards":"True","RestaurantsAttire":"'casual'","RestaurantsPriceRange2":"2","GoodForKids":"True","RestaurantsGoodForGroups":"True","NoiseLevel":"u'average'","RestaurantsReservations":"True","WiFi":"u'no'","BikeParking":"True","Alcohol":"u'full_bar'","HappyHour":"True","RestaurantsTableService":"True","RestaurantsDelivery":"True"},"categories":["Restaurants","Nightlife","BeerBar","Salad","Italian","Bars","WineBars"],"hours":{"Monday":"12:0-21:0","Tuesday":"12:0-21:0","Wednesday":"12:0-21:0","Thursday":"12:0-21:0","Friday":"12:0-22:0","Saturday":"12:0-22:0","Sunday":"12:0-21:0"}},{"business_id":"e0Xqct07zghIfUQrSITjaw","name":"Darbar","address":"130 N Beacon St","city":"Boston","state":"MA","postal_code":"02135","latitude":42.3548756245,"longitude":-71.1447026208,"stars":3.5,"review_count":194,"is_open":1,"attributes":{"GoodForKids":"True","NoiseLevel":"'quiet'","RestaurantsDelivery":"True","RestaurantsPriceRange2":"2","RestaurantsReservations":"True","RestaurantsAttire":"u'casual'","RestaurantsGoodForGroups":"True","WiFi":"u'free'","Caters":"True","BusinessAcceptsCreditCards":"True","HasTV":"True","RestaurantsTableService":"True","RestaurantsTakeOut":"True","WheelchairAccessible":"True","OutdoorSeating":"True"},"categories":["Indian","Restaurants","Pakistani","Halal"],"hours":{"Tuesday":"11:30-22:0","Wednesday":"11:30-22:0","Thursday":"11:30-22:0","Friday":"11:30-22:0","Saturday":"11:30-22:0","Sunday":"11:30-22:0"}},{"business_id":"R5TkfU4aL5OldkLUb3zQyQ","name":"Fun Food Snackery","address":"141 Brighton Ave","city":"Allston","state":"MA","postal_code":"02134","latitude":42.3529939,"longitude":-71.1316069,"stars":4.5,"review_count":45,"is_open":0,"attributes":{"Alcohol":"'none'","GoodForKids":"True","BusinessAcceptsCreditCards":"True","BYOBCorkage":"'no'","RestaurantsTakeOut":"True","RestaurantsPriceRange2":"1","RestaurantsAttire":"'casual'","RestaurantsGoodForGroups":"True"},"categories":["IceCream&FrozenYogurt","Desserts","Creperies","Food","Restaurants"],"hours":{"Monday":"12:0-23:0","Tuesday":"12:0-23:0","Wednesday":"12:0-23:0","Thursday":"12:0-23:0","Friday":"12:0-23:0","Saturday":"12:0-23:0","Sunday":"12:0-23:0"}},{"business_id":"i9Gi-LSagCrV6pLUfO2-3A","name":"Purple Shell","address":"11 W Broadway","city":"Boston","state":"MA","postal_code":"02127","latitude":42.3424231,"longitude":-71.0568978265,"stars":4.5,"review_count":59,"is_open":1,"attributes":{"HasTV":"True","Alcohol":"u'full_bar'","RestaurantsAttire":"u'casual'","Caters":"True","Smoking":"u'no'","RestaurantsTableService":"True","WheelchairAccessible":"True","BusinessAcceptsCreditCards":"True","RestaurantsTakeOut":"True","RestaurantsPriceRange2":"3","RestaurantsDelivery":"True","WiFi":"u'free'"},"categories":["Restaurants","SushiBars","CocktailBars","AsianFusion","TapasBars","Japanese","Bars","Nightlife"],"hours":{"Tuesday":"13:30-22:30","Wednesday":"13:30-22:30","Thursday":"13:30-22:30","Friday":"12:0-23:30","Saturday":"12:0-23:30","Sunday":"12:0-22:30"}},{"business_id":"mqDsEyybiu1yXYu3LgwbZg","name":"Lamplighter Brewing","address":"284 Broadway","city":"Cambridge","state":"MA","postal_code":"02139","latitude":42.3678174,"longitude":-71.0979263,"stars":4.0,"review_count":227,"is_open":1,"attributes":{"HasTV":"True","BusinessAcceptsCreditCards":"True","RestaurantsPriceRange2":"2","BikeParking":"True","Smoking":"u'no'","NoiseLevel":"u'loud'","WiFi":"'free'","RestaurantsTakeOut":"True","WheelchairAccessible":"True","Alcohol":"u'beer_and_wine'","RestaurantsGoodForGroups":"True"},"categories":["Coffee&Tea","Breakfast&Brunch","Bars","BeerBar","Nightlife","Breweries","Food","Restaurants"],"hours":{"Tuesday":"11:0-18:30","Wednesday":"11:0-18:30","Thursday":"11:0-18:30","Friday":"11:0-20:0","Saturday":"11:0-20:0","Sunday":"11:0-20:0"}},{"business_id":"iZ6U8gC2fVLaaVlcQLfZOQ","name":"Thai Amarin","address":"287 Centre St","city":"Newton Corner","state":"MA","postal_code":"02458","latitude":42.358088,"longitude":-71.185137,"stars":4.0,"review_count":202,"is_open":1,"attributes":{"RestaurantsDelivery":"True","GoodForKids":"True","RestaurantsAttire":"'casual'","BYOBCorkage":"'no'","RestaurantsPriceRange2":"2","RestaurantsGoodForGroups":"True","BikeParking":"True","RestaurantsTakeOut":"True","BusinessAcceptsCreditCards":"True","WiFi":"u'no'","Alcohol":"'beer_and_wine'","Caters":"True","Corkage":"True","RestaurantsReservations":"True","HasTV":"True","RestaurantsTableService":"True","WheelchairAccessible":"True","NoiseLevel":"u'quiet'"},"categories":["Thai","Restaurants"],"hours":{"Tuesday":"16:30-20:30","Wednesday":"16:30-20:30","Thursday":"16:30-20:30","Friday":"16:30-20:30","Saturday":"16:30-20:30","Sunday":"16:0-20:30"}},{"business_id":"DTmTXwvBdFZACQMe1rqzdw","name":"Crown Cafe","address":"106 Main St","city":"Watertown","state":"MA","postal_code":"02472","latitude":42.3669224,"longitude":-71.1871316,"stars":4.0,"review_count":56,"is_open":1,"attributes":{"RestaurantsPriceRange2":"1","WiFi":"u'no'","HasTV":"True","RestaurantsGoodForGroups":"True","RestaurantsTakeOut":"True","Alcohol":"'none'","RestaurantsAttire":"'casual'","NoiseLevel":"u'average'","BusinessAcceptsCreditCards":"True","BikeParking":"True","GoodForKids":"True"},"categories":["Salad","Restaurants","Breakfast&Brunch","Sandwiches","Mediterranean","Greek"],"hours":{"Monday":"6:0-15:0","Tuesday":"6:0-15:0","Wednesday":"6:0-15:0","Thursday":"6:0-15:0","Friday":"6:0-15:0","Saturday":"6:0-15:0","Sunday":"6:0-15:0"}},{"business_id":"1NVThwwaX0AWVZVEnnI3OQ","name":"Venus Pizza & Grill","address":"1293 Broadway","city":"Somerville","state":"MA","postal_code":"02144","latitude":42.4057502,"longitude":-71.1307668,"stars":3.5,"review_count":53,"is_open":1,"attributes":{"GoodForKids":"True","RestaurantsPriceRange2":"1","RestaurantsDelivery":"True","RestaurantsAttire":"u'casual'","RestaurantsGoodForGroups":"True","RestaurantsTakeOut":"True","HasTV":"True","NoiseLevel":"u'average'","BusinessAcceptsCreditCards":"True","BikeParking":"True","WiFi":"'no'","OutdoorSeating":"True"},"categories":["Wraps","Pizza","MiddleEastern","Greek","Restaurants"],"hours":{"Monday":"11:0-22:45","Tuesday":"11:0-22:45","Wednesday":"11:0-22:45","Thursday":"11:0-22:45","Friday":"11:0-23:45","Saturday":"11:0-23:45","Sunday":"11:0-22:45"}},{"business_id":"VuFIPvP0U73sAMkjAxJTvw","name":"Lily's Kitchen Chinese Restaurant","address":"54 River St","city":"Waltham","state":"MA","postal_code":"02453","latitude":42.3683805,"longitude":-71.217968,"stars":3.0,"review_count":74,"is_open":0,"attributes":{"RestaurantsAttire":"'casual'","WiFi":"u'no'","RestaurantsTakeOut":"True","RestaurantsPriceRange2":"2","BusinessAcceptsCreditCards":"True","NoiseLevel":"u'quiet'","RestaurantsDelivery":"True","BikeParking":"True","HasTV":"True"},"categories":["Restaurants","Chinese"],"hours":{"Monday":"11:0-22:30","Tuesday":"11:0-22:30","Wednesday":"11:0-22:30","Thursday":"11:0-22:30","Friday":"11:0-23:0","Saturday":"11:0-23:0","Sunday":"12:0-22:30"}},{"business_id":"1SlpJBMUyxFF7XiLUxTGGA","name":"sweetgreen","address":"180 Linden St.","city":"Wellesley","state":"MA","postal_code":"02482","latitude":42.3001171,"longitude":-71.2924786,"stars":2.5,"review_count":55,"is_open":1,"attributes":{"BusinessAcceptsCreditCards":"True","HasTV":"True","GoodForKids":"True","RestaurantsTakeOut":"True","RestaurantsDelivery":"True"},"categories":["Restaurants","Vegetarian","Salad"],"hours":{"Monday":"10:30-19:0","Tuesday":"10:30-19:0","Wednesday":"10:30-19:0","Thursday":"10:30-19:0","Friday":"10:30-19:0","Saturday":"10:30-19:0","Sunday":"10:30-19:0"}},{"business_id":"8DMJ74QTxlpqy56zZ_3Vbw","name":"Haymarket International Food Co","address":"88 Blackstone St","city":"Boston","state":"MA","postal_code":"02109","latitude":42.3614272,"longitude":-71.0562087,"stars":4.0,"review_count":15,"is_open":1,"attributes":{"RestaurantsAttire":"u'casual'","RestaurantsPriceRange2":"1","GoodForKids":"True","HasTV":"True","BusinessAcceptsCreditCards":"True","NoiseLevel":"u'quiet'","WiFi":"u'no'","RestaurantsTakeOut":"True"},"categories":["EthicalGrocery","Restaurants","MeatShops","MiddleEastern","Butcher","Grocery","Food","SpecialtyFood"],"hours":{"Thursday":"9:0-20:0","Friday":"6:0-20:0","Saturday":"6:0-20:0","Sunday":"9:0-20:0"}},{"business_id":"gdSGTMaSWNly2XO1ws8_HQ","name":"Castle Creek Adventure Land","address":"100-114 Swampscott Rd","city":"Salem","state":"MA","postal_code":"01970","latitude":42.493105,"longitude":-70.91999,"stars":3.0,"review_count":35,"is_open":1,"attributes":{"RestaurantsAttire":"u'casual'","RestaurantsTakeOut":"True","NoiseLevel":"u'average'","BusinessAcceptsCreditCards":"True","OutdoorSeating":"True","RestaurantsGoodForGroups":"True","RestaurantsPriceRange2":"2","GoodForKids":"True","WiFi":"'no'","HasTV":"True"},"categories":["MiniGolf","ActiveLife","Restaurants","HotDogs","GoKarts"],"hours":{"Monday":"9:0-22:0","Tuesday":"9:0-22:0","Wednesday":"9:0-22:0","Thursday":"9:0-22:0","Friday":"9:0-22:0","Saturday":"9:0-22:0","Sunday":"9:0-22:0"}},{"business_id":"cjyLoEh5rMXK9abs12KdKA","name":"Back Bay Harry's","address":"142 Berkeley St","city":"Boston","state":"MA","postal_code":"02116","latitude":42.3489003,"longitude":-71.0720904,"stars":3.5,"review_count":179,"is_open":0,"attributes":{"Caters":"True","BikeParking":"True","RestaurantsGoodForGroups":"True","WiFi":"'free'","BusinessAcceptsCreditCards":"True","NoiseLevel":"u'average'","Alcohol":"u'full_bar'","HasTV":"True","RestaurantsReservations":"True","RestaurantsTableService":"True","Smoking":"u'no'","HappyHour":"True","RestaurantsPriceRange2":"2","RestaurantsAttire":"u'casual'","RestaurantsTakeOut":"True"},"categories":["American(New)","Bars","Restaurants","Nightlife"],"hours":{"Monday":"11:30-0:0","Tuesday":"11:30-0:0","Wednesday":"11:30-0:0","Thursday":"11:30-1:0","Friday":"11:30-2:0","Saturday":"17:0-2:0","Sunday":"11:0-0:0"}},{"business_id":"HnFvbCIjoZj2OeDuzOLtfg","name":"Paul Anthony's Pizza","address":"178 Main St","city":"North Reading","state":"MA","postal_code":"01864","latitude":42.5830601,"longitude":-71.1134488,"stars":4.0,"review_count":15,"is_open":0,"attributes":{"BusinessAcceptsCreditCards":"True","GoodForKids":"True","RestaurantsPriceRange2":"1","RestaurantsDelivery":"True","RestaurantsAttire":"u'casual'","RestaurantsTakeOut":"True"},"categories":["Sandwiches","Pizza","Restaurants"],"hours":{"Tuesday":"15:0-21:0","Wednesday":"11:0-21:0","Thursday":"11:0-22:0","Friday":"11:0-22:0","Saturday":"11:0-15:0","Sunday":"11:0-21:0"}},{"business_id":"dguuYTVO42NAEYUNVh714w","name":"The New Deli After Dark","address":"545 High St","city":"Dedham","state":"MA","postal_code":"02026","latitude":42.248134,"longitude":-71.172074,"stars":3.5,"review_count":60,"is_open":0,"attributes":{"BusinessAcceptsCreditCards":"True","NoiseLevel":"u'average'","WiFi":"u'free'","RestaurantsTakeOut":"True","Caters":"True","GoodForKids":"True","HasTV":"True","RestaurantsAttire":"u'casual'","RestaurantsGoodForGroups":"True","RestaurantsReservations":"True","Smoking":"u'no'","Alcohol":"u'full_bar'","RestaurantsPriceRange2":"2","RestaurantsDelivery":"True","WheelchairAccessible":"True"},"categories":["Pizza","Bars","Nightlife","Delis","Restaurants","Sandwiches","American(Traditional)"],"hours":{"Monday":"9:0-15:0","Tuesday":"9:0-21:0","Wednesday":"9:0-23:0","Thursday":"9:0-23:0","Friday":"9:0-23:0","Saturday":"16:0-23:0","Sunday":"12:0-20:0"}},{"business_id":"FcWudzn4O2Jq2TwgY7RA2Q","name":"Matuya Asian Cuisine","address":"696 Washington St","city":"Brookline","state":"MA","postal_code":"02446","latitude":42.3388342,"longitude":-71.1347904,"stars":2.5,"review_count":5,"is_open":1,"attributes":{"RestaurantsPriceRange2":"2","NoiseLevel":"u'quiet'","RestaurantsTableService":"True","BusinessAcceptsCreditCards":"True","RestaurantsTakeOut":"True","RestaurantsDelivery":"True"},"categories":["Restaurants","AsianFusion","Japanese","SushiBars"],"hours":{"Monday":"16:0-23:0","Tuesday":"16:0-23:0","Wednesday":"16:0-23:0","Thursday":"16:0-23:0","Friday":"16:0-0:0","Saturday":"16:0-0:0","Sunday":"16:0-23:0"}},{"business_id":"rTNzcemJSS82pBFnMrKIrA","name":"Eggcetera, Etc","address":"665 Cochituate Rd","city":"Framingham","state":"MA","postal_code":"01701","latitude":42.3080134,"longitude":-71.3852423,"stars":3.0,"review_count":31,"is_open":0,"attributes":{"RestaurantsDelivery":"True","GoodForKids":"True","RestaurantsTakeOut":"True","WiFi":"u'free'","BusinessAcceptsCreditCards":"True","RestaurantsGoodForGroups":"True","Caters":"True","RestaurantsAttire":"u'casual'","NoiseLevel":"u'average'","RestaurantsPriceRange2":"1"},"categories":["FastFood","Food","Do-It-YourselfFood","Breakfast&Brunch","Restaurants"],"hours":{"Monday":"6:30-15:0","Tuesday":"6:30-15:0","Wednesday":"6:30-15:0","Thursday":"6:30-15:0","Friday":"6:30-15:0","Saturday":"6:30-15:0","Sunday":"6:30-15:0"}},{"business_id":"dS85Gdxt6o5qkb2lrC211A","name":"The Villa Restaurant","address":"124 E Plain St","city":"Wayland","state":"MA","postal_code":"01778","latitude":42.3226683,"longitude":-71.3552293,"stars":3.5,"review_count":147,"is_open":1,"attributes":{"RestaurantsPriceRange2":"2","RestaurantsGoodForGroups":"True","HasTV":"True","RestaurantsAttire":"'casual'","BusinessAcceptsCreditCards":"True","WiFi":"u'no'","GoodForKids":"True","RestaurantsTakeOut":"True","Caters":"True","RestaurantsReservations":"True","NoiseLevel":"u'average'"},"categories":["Italian","Restaurants","Mexican","American(Traditional)","Seafood"],"hours":{"Monday":"11:30-22:0","Tuesday":"11:30-22:0","Wednesday":"11:30-22:0","Thursday":"11:30-22:0","Friday":"11:30-22:0","Saturday":"11:30-22:0","Sunday":"12:0-21:0"}},{"business_id":"k6zpfNbVMoGLYHcv2FZtJQ","name":"The Biscuit","address":"406 Washington St","city":"Somerville","state":"MA","postal_code":"02143","latitude":42.378225158,"longitude":-71.1060597364,"stars":3.5,"review_count":315,"is_open":0,"attributes":{"GoodForKids":"True","RestaurantsPriceRange2":"1","BusinessAcceptsCreditCards":"True","RestaurantsTakeOut":"True","RestaurantsAttire":"u'casual'","OutdoorSeating":"True","BikeParking":"True","NoiseLevel":"u'average'","HasTV":"True","WiFi":"u'free'"},"categories":["Coffee&Tea","Bakeries","Sandwiches","Food","Restaurants"],"hours":{"Monday":"7:0-18:0","Tuesday":"7:0-18:0","Wednesday":"7:0-18:0","Thursday":"7:0-18:0","Friday":"7:0-18:0","Saturday":"7:0-18:0","Sunday":"7:0-18:0"}},{"business_id":"YcstAcyHnSvdFCJl6ct5yA","name":"Riva Pizzeria","address":"307 Nantasket Ave","city":"Hull","state":"MA","postal_code":"02045","latitude":42.2752829,"longitude":-70.8627977,"stars":3.5,"review_count":17,"is_open":0,"attributes":{"RestaurantsPriceRange2":"2","RestaurantsDelivery":"True","WiFi":"u'no'","BusinessAcceptsCreditCards":"True","GoodForKids":"True","RestaurantsTakeOut":"True","RestaurantsAttire":"u'casual'","NoiseLevel":"u'average'"},"categories":["Restaurants","Pizza"],"hours":{"Wednesday":"16:0-21:0","Thursday":"16:0-21:0","Friday":"16:0-21:0","Saturday":"16:0-21:0","Sunday":"16:0-21:0"}},{"business_id":"hlYeuldaqmx3Zqy8eeCAHw","name":"Grezzo","address":"69 Prince St","city":"Boston","state":"MA","postal_code":"02113","latitude":42.3651793,"longitude":-71.0553306,"stars":3.5,"review_count":87,"is_open":0,"attributes":{"RestaurantsAttire":"u'casual'","RestaurantsTakeOut":"True","BusinessAcceptsCreditCards":"True","Alcohol":"'beer_and_wine'","RestaurantsPriceRange2":"3","RestaurantsReservations":"True"},"categories":["Live\/RawFood","Vegan","Vegetarian","Restaurants"],"hours":{"Wednesday":"17:0-0:0","Thursday":"17:0-0:0","Friday":"17:0-0:0","Saturday":"17:0-0:0","Sunday":"17:0-0:0"}},{"business_id":"uzrW0Ach6sgEltPXjW2C7g","name":"Five Bites Cupcakes","address":"141 Linden St, Ste 2-C","city":"Wellesley","state":"MA","postal_code":"02482","latitude":42.2989195,"longitude":-71.293689,"stars":3.0,"review_count":42,"is_open":0,"attributes":{"RestaurantsReservations":"True","GoodForKids":"True","RestaurantsTakeOut":"True","RestaurantsPriceRange2":"2","RestaurantsGoodForGroups":"True","RestaurantsAttire":"u'casual'","RestaurantsDelivery":"True","BusinessAcceptsCreditCards":"True"},"categories":["Bakeries","Food","Restaurants","Desserts"],"hours":{"Tuesday":"11:0-17:0","Wednesday":"11:0-17:0","Thursday":"11:0-17:0","Friday":"11:0-17:0","Saturday":"10:0-16:0"}},{"business_id":"XiE-Yyb2kSE53HKjPEoSZA","name":"Sidelines Sportsbar & Grill","address":"105 Canal St","city":"Salem","state":"MA","postal_code":"01970","latitude":42.5103532,"longitude":-70.8959303,"stars":3.5,"review_count":112,"is_open":1,"attributes":{"BYOBCorkage":"'no'","RestaurantsTakeOut":"True","RestaurantsAttire":"'casual'","WiFi":"u'free'","HasTV":"True","RestaurantsGoodForGroups":"True","RestaurantsPriceRange2":"2","BusinessAcceptsCreditCards":"True","BikeParking":"True","Alcohol":"u'full_bar'","NoiseLevel":"u'loud'","RestaurantsDelivery":"True"},"categories":["Bars","Restaurants","Nightlife","American(Traditional)","SportsBars"],"hours":{"Monday":"11:0-1:0","Tuesday":"11:0-1:0","Wednesday":"11:0-1:0","Thursday":"11:0-1:0","Friday":"11:0-1:0","Saturday":"11:0-1:0","Sunday":"11:0-1:0"}},{"business_id":"T51_B9UEtrTAgjp_u9fp9Q","name":"Sake Japanese Restaurant","address":"670 Broadway","city":"Saugus","state":"MA","postal_code":"01906","latitude":42.4753455,"longitude":-71.0232884,"stars":4.0,"review_count":173,"is_open":0,"attributes":{"RestaurantsAttire":"'casual'","RestaurantsGoodForGroups":"True","RestaurantsReservations":"True","RestaurantsPriceRange2":"2","BusinessAcceptsCreditCards":"True","GoodForKids":"True","Alcohol":"u'full_bar'","WiFi":"u'no'","RestaurantsTakeOut":"True","NoiseLevel":"u'quiet'","HasTV":"True"},"categories":["Japanese","Restaurants","Salad","SushiBars"],"hours":{"Monday":"11:30-22:30","Tuesday":"11:30-22:30","Wednesday":"11:30-22:30","Thursday":"11:30-22:30","Friday":"11:30-23:30","Saturday":"11:30-23:30","Sunday":"12:30-21:30"}},{"business_id":"T8DpRFty13MXLf6MB43aLg","name":"Bondir Cambridge","address":"279A Broadway","city":"Cambridge","state":"MA","postal_code":"02139","latitude":42.3682904,"longitude":-71.0977689,"stars":4.0,"review_count":327,"is_open":1,"attributes":{"RestaurantsTakeOut":"True","BusinessAcceptsCreditCards":"True","RestaurantsPriceRange2":"4","WiFi":"u'no'","Alcohol":"u'beer_and_wine'","BikeParking":"True","RestaurantsAttire":"u'casual'","RestaurantsReservations":"True","WheelchairAccessible":"True","Corkage":"True","NoiseLevel":"u'quiet'"},"categories":["Restaurants","French","American(New)"],"hours":{"Wednesday":"17:0-21:0","Thursday":"17:0-21:0","Friday":"17:0-22:0","Saturday":"17:0-22:0","Sunday":"17:0-21:0"}},{"business_id":"mr9Tuv3ySAbZFRbHv1IFCw","name":"Supreme Kitchen","address":"233 Highland Ave","city":"Somerville","state":"MA","postal_code":"02143","latitude":42.390827,"longitude":-71.1088,"stars":3.0,"review_count":89,"is_open":1,"attributes":{"RestaurantsAttire":"'casual'","HasTV":"True","RestaurantsPriceRange2":"1","WiFi":"u'no'","RestaurantsTakeOut":"True","Alcohol":"'none'","GoodForKids":"True","BikeParking":"True","NoiseLevel":"u'average'"},"categories":["Restaurants","American(Traditional)","Breakfast&Brunch"],"hours":{"Monday":"7:0-15:0","Tuesday":"7:0-15:0","Wednesday":"7:0-15:0","Thursday":"7:0-15:0","Friday":"7:0-15:0","Saturday":"7:0-15:0","Sunday":"7:0-15:0"}},{"business_id":"cJMCrOgzPF7FprLT0MOxGg","name":"Town House Of Pizza","address":"892 Highland Ave","city":"Needham Heights","state":"MA","postal_code":"02494","latitude":42.2935181,"longitude":-71.2350282,"stars":3.5,"review_count":35,"is_open":1,"attributes":{"BikeParking":"True","RestaurantsTakeOut":"True","RestaurantsAttire":"u'casual'","GoodForKids":"True","HasTV":"True","RestaurantsPriceRange2":"1","BusinessAcceptsCreditCards":"True","WiFi":"u'free'","NoiseLevel":"u'average'","RestaurantsGoodForGroups":"True","Caters":"True","WheelchairAccessible":"True"},"categories":["Pizza","Restaurants","Greek","Salad"],"hours":{"Tuesday":"11:0-22:0","Wednesday":"11:0-22:0","Thursday":"11:0-22:0","Friday":"11:0-22:0","Saturday":"11:0-22:0","Sunday":"11:0-21:0"}},{"business_id":"kIvyPG10WVFjtJ9hOC4L8g","name":"Roasted Peppers","address":"100 Boston St","city":"Salem","state":"MA","postal_code":"01970","latitude":42.5206807,"longitude":-70.9117448,"stars":3.0,"review_count":52,"is_open":0,"attributes":{"BusinessAcceptsCreditCards":"True","HasTV":"True","RestaurantsTakeOut":"True","RestaurantsDelivery":"True","GoodForKids":"True","RestaurantsPriceRange2":"2","RestaurantsGoodForGroups":"True","RestaurantsAttire":"'casual'","NoiseLevel":"u'quiet'","BYOBCorkage":"'no'","WiFi":"'no'"},"categories":["ChickenWings","Sandwiches","Italian","Restaurants","Pizza"],"hours":{"Tuesday":"11:0-21:30","Wednesday":"11:0-21:30","Thursday":"11:0-21:30","Friday":"11:0-21:30","Sunday":"12:0-21:30"}},{"business_id":"eLe7m6Wh3jeSSoTGGo6H3A","name":"Trattoria Toscana","address":"130 Jersey St","city":"Boston","state":"MA","postal_code":"02215","latitude":42.3424092,"longitude":-71.0965842,"stars":4.0,"review_count":254,"is_open":0,"attributes":{"RestaurantsPriceRange2":"2","RestaurantsAttire":"'casual'","RestaurantsTakeOut":"True","Alcohol":"'beer_and_wine'","WiFi":"u'no'","BYOBCorkage":"'no'","BusinessAcceptsCreditCards":"True","NoiseLevel":"u'quiet'"},"categories":["Italian","Restaurants"],"hours":{"Monday":"17:0-22:0","Tuesday":"17:0-22:0","Wednesday":"17:0-22:0","Thursday":"17:0-22:0","Friday":"17:0-22:0","Saturday":"17:0-22:0"}},{"business_id":"Yza2V-zlc1iCCeiHxhdKDA","name":"P.F. Chang's","address":"800 Boylston St","city":"Boston","state":"MA","postal_code":"02199","latitude":42.3462320704,"longitude":-71.0829230172,"stars":2.5,"review_count":291,"is_open":0,"attributes":{"WiFi":"u'no'","BusinessAcceptsCreditCards":"True","BYOBCorkage":"'no'","RestaurantsTakeOut":"True","RestaurantsPriceRange2":"2","GoodForKids":"True","RestaurantsAttire":"'casual'","BikeParking":"True","RestaurantsGoodForGroups":"True","Caters":"True","RestaurantsReservations":"True","Alcohol":"'full_bar'","NoiseLevel":"u'average'","RestaurantsDelivery":"True","HappyHour":"True","OutdoorSeating":"True"},"categories":["Chinese","AsianFusion","Restaurants","Gluten-Free"],"hours":{"Monday":"11:0-23:0","Tuesday":"11:0-23:0","Wednesday":"11:0-23:0","Thursday":"11:0-23:0","Friday":"11:0-0:0","Saturday":"11:0-0:0","Sunday":"11:0-23:0"}},{"business_id":"5IWFf6GmI6KoPSLvDkvA2w","name":"Five Guys","address":"1250 Hancock St","city":"Quincy","state":"MA","postal_code":"02169","latitude":42.2517297156,"longitude":-71.0031134565,"stars":2.0,"review_count":20,"is_open":1,"attributes":{"BusinessAcceptsCreditCards":"True","RestaurantsTakeOut":"True","NoiseLevel":"u'average'","RestaurantsPriceRange2":"2","WiFi":"'no'","RestaurantsAttire":"'casual'","RestaurantsGoodForGroups":"True","GoodForKids":"True","RestaurantsDelivery":"True","HasTV":"True"},"categories":["FastFood","Burgers","Restaurants"],"hours":{"Monday":"11:0-22:0","Tuesday":"11:0-22:0","Wednesday":"11:0-22:0","Thursday":"11:0-22:0","Friday":"11:0-22:0","Saturday":"11:0-22:0","Sunday":"11:0-22:0"}},{"business_id":"Ii-aCAM4KG6RCvpMn0hOkg","name":"King and I","address":"145 Charles St","city":"Boston","state":"MA","postal_code":"02114","latitude":42.3603616,"longitude":-71.0706459,"stars":3.5,"review_count":337,"is_open":1,"attributes":{"RestaurantsGoodForGroups":"True","GoodForKids":"True","RestaurantsPriceRange2":"2","Caters":"True","BusinessAcceptsCreditCards":"True","RestaurantsTakeOut":"True","RestaurantsAttire":"'casual'","Alcohol":"'beer_and_wine'","BYOBCorkage":"'yes_free'","RestaurantsReservations":"True","BikeParking":"True","NoiseLevel":"u'average'","HasTV":"True","WiFi":"u'no'","RestaurantsDelivery":"True"},"categories":["Restaurants","Thai"],"hours":{"Monday":"11:0-20:30","Tuesday":"11:0-20:30","Wednesday":"11:0-20:30","Thursday":"11:0-20:30","Friday":"11:0-20:30","Saturday":"11:0-20:30","Sunday":"16:0-20:30"}},{"business_id":"cyUDXVJlDEm8GXfIgpSAog","name":"Arlington House of Pizza","address":"797 Massachusetts Ave","city":"Arlington","state":"MA","postal_code":"02474","latitude":42.4167426,"longitude":-71.1587248,"stars":2.5,"review_count":41,"is_open":1,"attributes":{"BusinessAcceptsCreditCards":"True","BYOBCorkage":"'no'","RestaurantsPriceRange2":"1","RestaurantsDelivery":"True","Alcohol":"'none'","RestaurantsTakeOut":"True","RestaurantsAttire":"'casual'","WiFi":"u'no'","GoodForKids":"True","HasTV":"True","RestaurantsGoodForGroups":"True","BikeParking":"True","NoiseLevel":"u'average'"},"categories":["Restaurants","Pizza"],"hours":{"Monday":"11:0-23:0","Tuesday":"11:0-23:0","Wednesday":"11:0-23:0","Thursday":"11:0-23:0","Friday":"11:0-0:0","Saturday":"11:0-23:0","Sunday":"11:0-23:0"}},{"business_id":"XM1llQ4T_IKVGmF7-p9C6w","name":"Spike's Junkyard Dogs","address":"108 Brighton Ave","city":"Allston","state":"MA","postal_code":"02134","latitude":42.352591,"longitude":-71.130387,"stars":3.5,"review_count":271,"is_open":1,"attributes":{"Alcohol":"'none'","BusinessAcceptsCreditCards":"True","BikeParking":"True","RestaurantsDelivery":"True","RestaurantsAttire":"'casual'","RestaurantsTakeOut":"True","GoodForKids":"True","RestaurantsPriceRange2":"1","BYOBCorkage":"'yes_free'","NoiseLevel":"u'average'","WiFi":"u'no'","HasTV":"True","WheelchairAccessible":"True"},"categories":["FastFood","Restaurants","Sandwiches","HotDogs","American(Traditional)","Burgers"],"hours":{"Monday":"11:0-1:0","Tuesday":"11:0-1:0","Wednesday":"11:0-1:0","Thursday":"11:0-2:0","Friday":"11:0-2:0","Saturday":"11:0-2:0","Sunday":"11:0-0:0"}},{"business_id":"7CAMlSH-UGjb5N75vN_Iww","name":"Bonchon Cambridge","address":"57 John F Kennedy St","city":"Cambridge","state":"MA","postal_code":"02138","latitude":42.372093,"longitude":-71.12072,"stars":3.0,"review_count":482,"is_open":1,"attributes":{"RestaurantsTableService":"True","NoiseLevel":"u'average'","GoodForKids":"True","BusinessAcceptsCreditCards":"True","RestaurantsPriceRange2":"2","RestaurantsGoodForGroups":"True","BikeParking":"True","RestaurantsAttire":"u'casual'","Caters":"True","WiFi":"u'no'","RestaurantsTakeOut":"True","RestaurantsDelivery":"True"},"categories":["AsianFusion","Korean","Barbeque","ChickenWings","Restaurants"],"hours":{"Tuesday":"11:30-22:0","Wednesday":"11:30-22:0","Thursday":"11:30-22:0","Friday":"11:30-22:0","Saturday":"11:30-22:0","Sunday":"11:30-22:0"}},{"business_id":"SIL6wXtOp2EeKA2-00isFg","name":"Sakura","address":"691 Main St","city":"Walpole","state":"MA","postal_code":"02081","latitude":42.1537837,"longitude":-71.2456348,"stars":5.0,"review_count":8,"is_open":1,"attributes":{"RestaurantsDelivery":"True","RestaurantsTakeOut":"True"},"categories":["Ramen","SushiBars","Japanese","Chinese","AsianFusion","Restaurants"],"hours":{"Monday":"11:0-21:30","Tuesday":"11:0-21:30","Wednesday":"11:0-21:30","Thursday":"11:0-21:30","Friday":"11:0-22:0","Saturday":"11:0-22:0","Sunday":"12:0-21:30"}},{"business_id":"A9M9J67qmBuMp6I1Px_4_w","name":"Cafe Bistro","address":"290 Speen St","city":"Natick","state":"MA","postal_code":"01760","latitude":42.302888,"longitude":-71.382291,"stars":4.0,"review_count":85,"is_open":0,"attributes":{"RestaurantsGoodForGroups":"True","NoiseLevel":"u'quiet'","RestaurantsTakeOut":"True","RestaurantsPriceRange2":"2","GoodForKids":"True","BusinessAcceptsCreditCards":"True","WiFi":"'free'","Alcohol":"u'beer_and_wine'","RestaurantsAttire":"'casual'"},"categories":["Sandwiches","Cafes","ComfortFood","American(New)","Salad","Restaurants","Pizza"],"hours":{"Wednesday":"11:0-20:0","Thursday":"11:0-20:0","Friday":"11:0-20:0","Saturday":"11:0-20:0","Sunday":"11:0-17:0"}},{"business_id":"IFamp2iDylLbgkxN8WaG0A","name":"Vico Ristorante Italiano","address":"89 Central St","city":"Norwood","state":"MA","postal_code":"02062","latitude":42.1932013,"longitude":-71.1998528,"stars":4.5,"review_count":143,"is_open":1,"attributes":{"BusinessAcceptsCreditCards":"True","RestaurantsTableService":"True","NoiseLevel":"u'average'","RestaurantsGoodForGroups":"True","RestaurantsPriceRange2":"2","Alcohol":"u'beer_and_wine'","RestaurantsAttire":"u'casual'","WheelchairAccessible":"True","WiFi":"'no'","RestaurantsTakeOut":"True","RestaurantsReservations":"True"},"categories":["Restaurants","Italian"],"hours":{"Tuesday":"16:0-21:0","Wednesday":"16:0-21:0","Thursday":"16:0-21:0","Friday":"16:0-21:0","Saturday":"16:0-21:0"}},{"business_id":"1s8jekQDpPcnvTMWndbnag","name":"Gerard's Restaurant","address":"772 Adams St","city":"Dorchester","state":"MA","postal_code":"02124","latitude":42.2833826,"longitude":-71.0554847,"stars":3.5,"review_count":34,"is_open":0,"attributes":{"BusinessAcceptsCreditCards":"True","RestaurantsGoodForGroups":"True","RestaurantsAttire":"'casual'","RestaurantsTakeOut":"True","BYOBCorkage":"'no'","Caters":"True","GoodForKids":"True","HasTV":"True","Alcohol":"'full_bar'","WiFi":"'no'","NoiseLevel":"'average'","BikeParking":"True","RestaurantsPriceRange2":"2"},"categories":["Caterers","Restaurants","Food","American(New)","ConvenienceStores","EventPlanning&Services"],"hours":{"Monday":"6:30-23:0","Tuesday":"6:30-23:0","Wednesday":"6:30-23:0","Thursday":"6:30-23:0","Friday":"6:30-23:0","Saturday":"6:30-23:0","Sunday":"6:30-23:0"}},{"business_id":"f7mGllMu3zbq38tKUqptbw","name":"Dunkin'","address":"112 Elliott St","city":"Beverly","state":"MA","postal_code":"01915","latitude":42.5548937,"longitude":-70.8836685,"stars":2.5,"review_count":7,"is_open":1,"attributes":{"HasTV":"True","GoodForKids":"True","RestaurantsAttire":"u'casual'","BusinessAcceptsCreditCards":"True","NoiseLevel":"u'average'","RestaurantsPriceRange2":"1","RestaurantsTakeOut":"True","RestaurantsDelivery":"True"},"categories":["Coffee&Tea","Food","IceCream&FrozenYogurt","Restaurants","Sandwiches","Donuts"],"hours":{"Monday":"5:0-22:0","Tuesday":"5:0-22:0","Wednesday":"5:0-22:0","Thursday":"5:0-22:0","Friday":"5:0-22:0","Saturday":"5:0-22:0","Sunday":"5:0-21:0"}},{"business_id":"vNhNrZRVqiJTglRaxWwlmA","name":"Bruegger's Bagels","address":"360 Granite Ave","city":"Milton","state":"MA","postal_code":"02186","latitude":42.259106,"longitude":-71.041537,"stars":2.0,"review_count":61,"is_open":1,"attributes":{"RestaurantsTakeOut":"True","Caters":"True","RestaurantsGoodForGroups":"True","GoodForKids":"True","WiFi":"'free'","RestaurantsAttire":"'casual'","BusinessAcceptsCreditCards":"True","NoiseLevel":"u'average'","RestaurantsPriceRange2":"1","HasTV":"True","BikeParking":"True","Alcohol":"'none'","RestaurantsDelivery":"True"},"categories":["Bagels","Restaurants","Sandwiches","Food","Breakfast&Brunch"],"hours":{"Monday":"6:0-15:0","Tuesday":"6:0-15:0","Wednesday":"6:0-15:0","Thursday":"6:0-15:0","Friday":"6:0-15:0","Saturday":"6:0-15:0","Sunday":"6:0-15:0"}},{"business_id":"81DSkoVezBC-9BYe63c0dw","name":"Courtside","address":"299 Cambridge St","city":"Cambridge","state":"MA","postal_code":"02141","latitude":42.3713244,"longitude":-71.0808938,"stars":3.5,"review_count":156,"is_open":0,"attributes":{"RestaurantsAttire":"'casual'","NoiseLevel":"u'very_loud'","RestaurantsGoodForGroups":"True","Alcohol":"'full_bar'","RestaurantsPriceRange2":"1","HasTV":"True","WiFi":"u'free'","BusinessAcceptsCreditCards":"True","RestaurantsTakeOut":"True","BikeParking":"True"},"categories":["American(Traditional)","Bars","Karaoke","Restaurants","Nightlife"],"hours":{"Monday":"10:0-1:0","Tuesday":"10:0-1:0","Wednesday":"10:0-1:0","Thursday":"10:0-1:0","Friday":"10:0-1:0","Saturday":"10:0-1:0","Sunday":"12:0-20:0"}},{"business_id":"BAC-9njvQzG9KekYJ2cEWg","name":"Darwin's","address":"1629 Cambridge St","city":"Cambridge","state":"MA","postal_code":"02138","latitude":42.3749796167,"longitude":-71.1095796911,"stars":3.5,"review_count":326,"is_open":1,"attributes":{"WiFi":"u'free'","RestaurantsAttire":"'casual'","BusinessAcceptsCreditCards":"True","BikeParking":"True","NoiseLevel":"u'average'","RestaurantsTakeOut":"True","RestaurantsGoodForGroups":"True","GoodForKids":"True","RestaurantsPriceRange2":"2","WheelchairAccessible":"True"},"categories":["Sandwiches","Burgers","Restaurants","Breakfast&Brunch","Coffee&Tea","Food"],"hours":{"Tuesday":"8:0-15:0","Wednesday":"8:0-15:0","Thursday":"8:0-15:0","Friday":"8:0-15:0","Saturday":"8:0-15:0","Sunday":"8:0-15:0"}},{"business_id":"mcJhge14uee3o7WsAUe4rQ","name":"3 Fortunes Chinese Restaurant","address":"179 Willow St","city":"Waltham","state":"MA","postal_code":"02453","latitude":42.3711014,"longitude":-71.2207154,"stars":3.5,"review_count":65,"is_open":1,"attributes":{"RestaurantsTakeOut":"True","NoiseLevel":"u'quiet'","RestaurantsAttire":"'casual'","Caters":"True","RestaurantsDelivery":"True","GoodForKids":"True","HasTV":"True","RestaurantsPriceRange2":"1","WiFi":"u'no'","BusinessAcceptsCreditCards":"True","RestaurantsGoodForGroups":"True","HappyHour":"True","BikeParking":"True"},"categories":["Restaurants","IceCream&FrozenYogurt","Chinese","Food"],"hours":{"Tuesday":"11:0-22:0","Wednesday":"11:0-22:0","Thursday":"11:0-22:0","Friday":"11:0-23:0","Saturday":"11:0-23:0","Sunday":"11:0-22:0"}},{"business_id":"dy-XO6rRE1cAMMrpMDQRrw","name":"Explorateur","address":"186 Tremont St","city":"Boston","state":"MA","postal_code":"02116","latitude":42.3525108,"longitude":-71.0641694,"stars":3.5,"review_count":351,"is_open":0,"attributes":{"NoiseLevel":"u'average'","WiFi":"'free'","BikeParking":"True","Alcohol":"u'full_bar'","RestaurantsPriceRange2":"2","RestaurantsGoodForGroups":"True","RestaurantsAttire":"u'casual'","RestaurantsTableService":"True","RestaurantsReservations":"True","Smoking":"u'no'","BusinessAcceptsCreditCards":"True","Caters":"True","HasTV":"True","RestaurantsDelivery":"True","RestaurantsTakeOut":"True"},"categories":["American(New)","Restaurants","French","Nightlife","Bars","Cafes"],"hours":{"Monday":"7:30-17:30","Tuesday":"7:30-17:30","Wednesday":"7:30-17:30","Thursday":"7:30-23:0","Friday":"7:30-23:0","Saturday":"7:30-23:0","Sunday":"7:30-16:0"}},{"business_id":"M65Cr0yMqo8UvC3v0WKaAA","name":"P & R Ice Cream","address":"1284 Blue Hill Ave","city":"Mattapan","state":"MA","postal_code":"02126","latitude":42.2799351,"longitude":-71.0925528,"stars":3.0,"review_count":35,"is_open":1,"attributes":{"RestaurantsPriceRange2":"1","RestaurantsAttire":"'casual'","RestaurantsGoodForGroups":"True","WiFi":"'no'","RestaurantsDelivery":"True","BusinessAcceptsCreditCards":"True","RestaurantsTakeOut":"True","HasTV":"True"},"categories":["IceCream&FrozenYogurt","Restaurants","Caribbean","Food"],"hours":{"Monday":"7:0-1:30","Tuesday":"7:0-1:30","Wednesday":"7:0-1:30","Thursday":"7:0-1:30","Friday":"7:0-1:30","Saturday":"8:0-1:30","Sunday":"8:0-1:30"}},{"business_id":"qreH4BLueGlF913H_fSY0Q","name":"Shaanxi Gourmet","address":"259 Worcester St","city":"Natick","state":"MA","postal_code":"01760","latitude":42.3028643,"longitude":-71.3363008,"stars":3.5,"review_count":116,"is_open":1,"attributes":{"RestaurantsTakeOut":"True","RestaurantsPriceRange2":"2","NoiseLevel":"u'average'","WiFi":"u'free'","WheelchairAccessible":"True","RestaurantsGoodForGroups":"True","BusinessAcceptsCreditCards":"True","GoodForKids":"True","RestaurantsTableService":"True","RestaurantsAttire":"'casual'"},"categories":["Chinese","Restaurants"],"hours":{"Monday":"11:30-21:0","Tuesday":"11:30-21:0","Wednesday":"11:30-21:0","Thursday":"11:30-21:0","Friday":"11:30-21:30","Saturday":"11:30-21:30","Sunday":"11:30-21:0"}},{"business_id":"1f4ODqSgyJKhV9N-KMkJ0A","name":"Jimmys Famous Beef  &  Seafood","address":"71 High St","city":"Danvers","state":"MA","postal_code":"01923","latitude":42.5618161,"longitude":-70.9329226,"stars":4.0,"review_count":40,"is_open":1,"attributes":{"RestaurantsTakeOut":"True","RestaurantsAttire":"u'casual'","NoiseLevel":"u'average'","RestaurantsPriceRange2":"2","BusinessAcceptsCreditCards":"True","GoodForKids":"True","RestaurantsGoodForGroups":"True","WiFi":"u'free'"},"categories":["Restaurants","Food","SpecialtyFood","Sandwiches","Seafood","SeafoodMarkets"],"hours":{"Monday":"11:0-21:0","Tuesday":"11:0-21:0","Wednesday":"11:0-21:0","Thursday":"11:0-21:0","Friday":"11:0-21:0","Saturday":"11:0-21:0","Sunday":"11:0-21:0"}},{"business_id":"mHXJvlMhuOPISh-K0DmtWw","name":"Yuciren EggWaffle","address":"250 Granite St","city":"Braintree","state":"MA","postal_code":"02184","latitude":42.2220664,"longitude":-71.0237194,"stars":4.5,"review_count":32,"is_open":0,"attributes":{"RestaurantsTakeOut":"True","HasTV":"True","BusinessAcceptsCreditCards":"True"},"categories":["Food","Desserts","Bakeries","Restaurants","Taiwanese"],"hours":{"Monday":"11:0-18:0","Tuesday":"11:0-18:0","Wednesday":"11:0-21:0","Thursday":"11:0-21:0","Friday":"11:0-21:0","Saturday":"11:0-21:0","Sunday":"11:0-18:0"}},{"business_id":"byR3cDtWfxYVNSY541QTXQ","name":"Salvatore's","address":"545 Washington St","city":"Boston","state":"MA","postal_code":"02111","latitude":42.3539164,"longitude":-71.0630087,"stars":3.0,"review_count":230,"is_open":0,"attributes":{"BusinessAcceptsCreditCards":"True","Caters":"True","WiFi":"'no'","RestaurantsReservations":"True","RestaurantsDelivery":"True","RestaurantsGoodForGroups":"True","RestaurantsPriceRange2":"2","Alcohol":"u'full_bar'","HasTV":"True","BikeParking":"True","NoiseLevel":"u'average'","RestaurantsTakeOut":"True","RestaurantsAttire":"u'casual'"},"categories":["Restaurants","Italian"],"hours":{"Monday":"11:0-0:0","Tuesday":"11:0-0:0","Wednesday":"11:0-0:0","Thursday":"11:0-0:0","Friday":"11:0-0:0","Saturday":"12:0-0:0","Sunday":"12:0-0:0"}},{"business_id":"yr5PAGXB19P1cy9-QJ9IYA","name":"Clover Food Lab","address":"1326 Massachusetts Ave","city":"Cambridge","state":"MA","postal_code":"02138","latitude":42.3729509943,"longitude":-71.1178823906,"stars":4.0,"review_count":833,"is_open":1,"attributes":{"BikeParking":"True","RestaurantsAttire":"u'casual'","Caters":"True","RestaurantsGoodForGroups":"True","GoodForKids":"True","NoiseLevel":"u'average'","RestaurantsTakeOut":"True","BusinessAcceptsCreditCards":"True","WiFi":"u'free'","RestaurantsPriceRange2":"2","Alcohol":"u'beer_and_wine'","HappyHour":"True","WheelchairAccessible":"True"},"categories":["Breakfast&Brunch","Restaurants","Salad","Vegetarian","Sandwiches","Cafes","FastFood","American(New)","Food","Coffee&Tea"],"hours":{"Tuesday":"7:0-20:0","Wednesday":"7:0-20:0","Thursday":"7:0-18:0","Friday":"11:0-20:0","Saturday":"7:0-20:0","Sunday":"11:0-20:0"}},{"business_id":"RNqUyblZzXvg0a2fBjJQQg","name":"Artisan Bistro","address":"10 Avery St","city":"Boston","state":"MA","postal_code":"02111","latitude":42.3530455761,"longitude":-71.0635334972,"stars":3.0,"review_count":106,"is_open":1,"attributes":{"BikeParking":"True","BusinessAcceptsCreditCards":"True","Caters":"True","Alcohol":"u'full_bar'","RestaurantsTakeOut":"True","RestaurantsAttire":"'dressy'","RestaurantsGoodForGroups":"True","RestaurantsPriceRange2":"3","HasTV":"True","RestaurantsReservations":"True","WiFi":"u'free'","GoodForKids":"True","NoiseLevel":"u'average'"},"categories":["American(Traditional)","American(New)","Restaurants"],"hours":{"Monday":"7:0-22:0","Tuesday":"7:0-22:0","Wednesday":"7:0-22:0","Thursday":"7:0-22:0","Friday":"7:0-1:0","Saturday":"7:0-22:0","Sunday":"7:0-22:0"}},{"business_id":"XCmRVkEIaEPkNtG6XHGZ0Q","name":"Boston Common Coffee Co.","address":"97 Salem St","city":"Boston","state":"MA","postal_code":"02113","latitude":42.3638446,"longitude":-71.0554967,"stars":3.5,"review_count":233,"is_open":0,"attributes":{"WiFi":"'free'","OutdoorSeating":"True","RestaurantsTakeOut":"True","GoodForKids":"True","RestaurantsAttire":"u'casual'","RestaurantsGoodForGroups":"True","RestaurantsPriceRange2":"1","BusinessAcceptsCreditCards":"True","BikeParking":"True","NoiseLevel":"u'average'"},"categories":["Restaurants","Breakfast&Brunch","InternetCafes","Food","Coffee&Tea","Cafes","Bakeries"],"hours":{"Monday":"6:0-19:0","Tuesday":"6:0-19:0","Wednesday":"6:0-19:0","Thursday":"6:0-19:0","Friday":"6:0-20:0","Saturday":"6:0-20:0","Sunday":"6:0-19:0"}},{"business_id":"vzO3wOIWVNNnxY3NlSXw-A","name":"Fresh City","address":"5 Cummings Park","city":"Woburn","state":"MA","postal_code":"01801","latitude":42.4961984304,"longitude":-71.1265606233,"stars":3.0,"review_count":48,"is_open":0,"attributes":{"RestaurantsGoodForGroups":"True","BusinessAcceptsCreditCards":"True","RestaurantsPriceRange2":"2","WiFi":"'free'","NoiseLevel":"u'loud'","RestaurantsTakeOut":"True","GoodForKids":"True","Caters":"True","RestaurantsAttire":"'casual'","OutdoorSeating":"True","BikeParking":"True"},"categories":["FastFood","Restaurants","American(New)"],"hours":{"Monday":"11:0-20:0","Tuesday":"11:0-20:0","Wednesday":"11:0-20:0","Thursday":"11:0-20:0","Friday":"11:0-20:0","Saturday":"12:0-19:0"}},{"business_id":"7ubvRCIO0jvr0qcJEOK1dQ","name":"SchoolHouse Pizza","address":"927 Main St","city":"Wakefield","state":"MA","postal_code":"01880","latitude":42.4825918,"longitude":-71.0666489,"stars":3.0,"review_count":15,"is_open":1,"attributes":{"GoodForKids":"True","RestaurantsGoodForGroups":"True","RestaurantsPriceRange2":"2","RestaurantsAttire":"'casual'","BusinessAcceptsCreditCards":"True","WiFi":"'free'","NoiseLevel":"u'average'","RestaurantsTakeOut":"True","HasTV":"True","RestaurantsDelivery":"True"},"categories":["Pizza","Italian","Restaurants"],"hours":{"Monday":"11:0-21:0","Tuesday":"11:0-21:0","Wednesday":"11:0-21:0","Thursday":"11:0-21:0","Friday":"11:0-21:0","Saturday":"11:0-21:0","Sunday":"11:0-21:0"}},{"business_id":"VxoRKAebGksNn5ewTGGxQQ","name":"Elephant & Castle","address":"161 Devonshire St","city":"Boston","state":"MA","postal_code":"02110","latitude":42.3561727,"longitude":-71.0575303,"stars":3.0,"review_count":395,"is_open":1,"attributes":{"Caters":"True","RestaurantsGoodForGroups":"True","RestaurantsReservations":"True","RestaurantsAttire":"'casual'","RestaurantsDelivery":"True","RestaurantsPriceRange2":"2","HasTV":"True","NoiseLevel":"u'average'","WiFi":"'free'","RestaurantsTakeOut":"True","Alcohol":"'full_bar'","BusinessAcceptsCreditCards":"True","HappyHour":"True","BYOBCorkage":"'no'","RestaurantsTableService":"True","BikeParking":"True","WheelchairAccessible":"True","Smoking":"u'outdoor'"},"categories":["Pubs","Restaurants","British","Nightlife","Bars"],"hours":{"Monday":"9:0-22:0","Tuesday":"9:0-22:0","Wednesday":"9:0-22:0","Thursday":"9:0-22:0","Friday":"9:0-23:0","Saturday":"9:0-23:0","Sunday":"9:0-22:0"}},{"business_id":"DpCa6wNADNPoZTDly2DkXA","name":"Pho So 1 Boston","address":"51 Memorial Pkwy","city":"Randolph","state":"MA","postal_code":"02368","latitude":42.163699467,"longitude":-71.0450629404,"stars":4.0,"review_count":293,"is_open":1,"attributes":{"RestaurantsAttire":"'casual'","NoiseLevel":"u'average'","GoodForKids":"True","RestaurantsTakeOut":"True","Alcohol":"'beer_and_wine'","BusinessAcceptsCreditCards":"True","RestaurantsGoodForGroups":"True","WiFi":"u'no'","BikeParking":"True","HasTV":"True","RestaurantsTableService":"True","RestaurantsPriceRange2":"2"},"categories":["Vietnamese","Restaurants"],"hours":{"Monday":"10:0-22:0","Tuesday":"10:0-22:0","Wednesday":"10:0-22:0","Thursday":"10:0-22:0","Friday":"10:0-22:0","Saturday":"10:0-22:0","Sunday":"10:0-22:0"}},{"business_id":"CVZ8fRJ92X1aUNHXiVMLJQ","name":"Pizza Rail","address":"1696 Commonwealth Ave","city":"Boston","state":"MA","postal_code":"02135","latitude":42.3412438,"longitude":-71.1465565,"stars":3.0,"review_count":30,"is_open":1,"attributes":{"RestaurantsTakeOut":"True","RestaurantsDelivery":"True","HasTV":"True"},"categories":["Pizza","Restaurants"],"hours":{"Monday":"11:0-0:0","Tuesday":"11:0-0:0","Wednesday":"11:0-0:0","Thursday":"11:0-1:0","Friday":"11:0-1:0","Saturday":"11:0-1:0","Sunday":"11:0-1:0"}},{"business_id":"5aRN54aHgUZAh9YW9xogCA","name":"Kigo Kitchen","address":"360 Huntington Ave","city":"Boston","state":"MA","postal_code":"02115","latitude":42.339169,"longitude":-71.087606,"stars":3.0,"review_count":10,"is_open":1,"attributes":{"RestaurantsDelivery":"True","RestaurantsGoodForGroups":"True","RestaurantsAttire":"u'casual'","WiFi":"u'free'","RestaurantsPriceRange2":"1","Caters":"True","BusinessAcceptsCreditCards":"True","BikeParking":"True","RestaurantsTakeOut":"True","NoiseLevel":"u'very_loud'"},"categories":["Restaurants","FastFood","AsianFusion","Thai","Japanese"],"hours":{"Monday":"11:0-19:0","Tuesday":"11:0-19:0","Wednesday":"11:0-19:0","Thursday":"11:0-19:0","Friday":"11:0-17:0"}},{"business_id":"X4eb8kkxIM5tYZ3bQLqsYQ","name":"Lilly's Gourmet Pasta","address":"52 Queensberry St","city":"Boston","state":"MA","postal_code":"02215","latitude":42.3426449,"longitude":-71.0973312,"stars":4.0,"review_count":19,"is_open":0,"attributes":{"GoodForKids":"True","RestaurantsDelivery":"True","OutdoorSeating":"True","RestaurantsTakeOut":"True","BYOBCorkage":"'no'","Alcohol":"'none'","RestaurantsPriceRange2":"2","BusinessAcceptsCreditCards":"True","RestaurantsAttire":"'casual'"},"categories":["SpecialtyFood","Food","Italian","Restaurants"],"hours":{"Monday":"14:0-1:0","Tuesday":"14:0-2:0","Wednesday":"14:0-2:0","Thursday":"14:0-2:0","Friday":"14:0-2:0","Saturday":"14:0-2:0"}},{"business_id":"zGJHpkVJcpsdRF5h2NyMPw","name":"The Indo","address":"298 Cabot St","city":"Beverly","state":"MA","postal_code":"01915","latitude":42.5522904492,"longitude":-70.8789237269,"stars":4.0,"review_count":82,"is_open":1,"attributes":{"RestaurantsTableService":"True","Smoking":"u'no'","WiFi":"'no'","NoiseLevel":"u'average'","RestaurantsAttire":"u'casual'","RestaurantsPriceRange2":"2","RestaurantsGoodForGroups":"True","Alcohol":"u'full_bar'","WheelchairAccessible":"True","OutdoorSeating":"True","HasTV":"True","BusinessAcceptsCreditCards":"True","BikeParking":"True","GoodForKids":"True"},"categories":["Nightlife","American(New)","American(Traditional)","Bars","Breakfast&Brunch","Irish","Restaurants","Pubs"],"hours":{"Monday":"16:0-1:0","Tuesday":"16:0-1:0","Wednesday":"16:0-1:0","Thursday":"11:0-1:0","Friday":"11:0-1:0","Saturday":"11:0-1:0","Sunday":"11:0-1:0"}},{"business_id":"VN8qbrVvMCmTLNxEOhV5sg","name":"B.GOOD","address":"359 Huntington Ave","city":"Boston","state":"MA","postal_code":"02115","latitude":42.340196,"longitude":-71.090269,"stars":3.0,"review_count":56,"is_open":1,"attributes":{"RestaurantsPriceRange2":"1","RestaurantsAttire":"'casual'","RestaurantsGoodForGroups":"True","GoodForKids":"True","BusinessAcceptsCreditCards":"True","BikeParking":"True","Caters":"True","WiFi":"u'free'","RestaurantsDelivery":"True","NoiseLevel":"u'average'","RestaurantsTakeOut":"True"},"categories":["JuiceBars&Smoothies","Restaurants","FastFood","Sandwiches","American(Traditional)","Salad","Food","Burgers","Breakfast&Brunch","American(New)"],"hours":{"Tuesday":"7:0-20:0","Wednesday":"10:30-21:0","Thursday":"11:0-16:0","Friday":"12:0-19:30"}},{"business_id":"k6Q3gluuTExfNr46JV6qGw","name":"KO Catering and Pies","address":"87 A St","city":"South Boston","state":"MA","postal_code":"02127","latitude":42.3424295,"longitude":-71.0545737,"stars":4.5,"review_count":215,"is_open":0,"attributes":{"BusinessAcceptsCreditCards":"True","GoodForKids":"True","RestaurantsPriceRange2":"1","WiFi":"u'no'","NoiseLevel":"u'average'","RestaurantsAttire":"u'casual'","Caters":"True","WheelchairAccessible":"True","RestaurantsTakeOut":"True","BikeParking":"True"},"categories":["Australian","EventPlanning&Services","Breakfast&Brunch","Kiosk","SpecialtyFood","Restaurants","Food","FastFood","Shopping","Bars","Caterers","Seafood","FoodStands","Nightlife"],"hours":{"Tuesday":"11:0-20:0","Wednesday":"11:0-20:0","Thursday":"11:0-20:0","Friday":"11:0-20:0"}},{"business_id":"VZ7Cg-hwILstsY5c0TtdBA","name":"Capone's Restaurant & Lounge","address":"147 Summit St","city":"Peabody","state":"MA","postal_code":"01960","latitude":42.519656,"longitude":-70.951992,"stars":4.0,"review_count":99,"is_open":1,"attributes":{"RestaurantsGoodForGroups":"True","RestaurantsTakeOut":"True","WiFi":"u'free'","Alcohol":"u'full_bar'","BYOBCorkage":"'no'","RestaurantsPriceRange2":"2","RestaurantsReservations":"True","RestaurantsAttire":"'casual'","BusinessAcceptsCreditCards":"True","NoiseLevel":"u'average'","HasTV":"True","Caters":"True","GoodForKids":"True","RestaurantsDelivery":"True"},"categories":["Nightlife","Lounges","Venues&EventSpaces","DanceClubs","EventPlanning&Services","American(Traditional)","Bars","Restaurants","Italian"],"hours":{"Tuesday":"16:0-20:0","Wednesday":"16:0-20:0","Thursday":"11:0-15:0","Friday":"16:0-20:0","Saturday":"16:0-20:0","Sunday":"16:0-20:0"}},{"business_id":"7fm9fi0K5nzXZ7edP24bJw","name":"Cubist Circle","address":"625 Washington St","city":"Weymouth","state":"MA","postal_code":"02188","latitude":42.204045,"longitude":-70.951759,"stars":4.5,"review_count":21,"is_open":1,"attributes":{"RestaurantsDelivery":"True","RestaurantsTakeOut":"True"},"categories":["Nightlife","Soup","Bars","Japanese","Chinese","Salad","SushiBars","Restaurants"],"hours":{"Monday":"11:30-22:0","Tuesday":"11:30-22:0","Wednesday":"11:30-22:0","Thursday":"11:30-22:0","Friday":"11:30-23:0","Saturday":"11:30-23:0","Sunday":"12:0-21:30"}},{"business_id":"Uhk4PXXeM1kDT-MSxwcxxw","name":"Kennedy Fried Chicken","address":"252 Western Ave","city":"Lynn","state":"MA","postal_code":"01904","latitude":42.4766509,"longitude":-70.949083,"stars":4.5,"review_count":32,"is_open":1,"attributes":{"RestaurantsAttire":"u'casual'","RestaurantsPriceRange2":"1","RestaurantsTakeOut":"True","RestaurantsGoodForGroups":"True","GoodForKids":"True","BikeParking":"True","WiFi":"u'no'","Alcohol":"'none'","BusinessAcceptsCreditCards":"True","NoiseLevel":"u'average'","HasTV":"True"},"categories":["Restaurants","ChickenWings"],"hours":{"Monday":"10:0-0:0","Tuesday":"10:0-0:0","Wednesday":"10:0-0:0","Thursday":"10:0-0:0","Friday":"10:0-0:0","Saturday":"10:0-0:0","Sunday":"10:0-0:0"}},{"business_id":"NfIWgqIbpvUD0cBRNIKypQ","name":"Chipotle Mexican Grill","address":"148 Brookline Ave","city":"Boston","state":"MA","postal_code":"02215","latitude":42.3446571,"longitude":-71.1008254,"stars":3.0,"review_count":157,"is_open":1,"attributes":{"BikeParking":"True","BusinessAcceptsCreditCards":"True","RestaurantsAttire":"u'casual'","RestaurantsGoodForGroups":"True","OutdoorSeating":"True","NoiseLevel":"u'average'","GoodForKids":"True","Caters":"True","WiFi":"'no'","RestaurantsPriceRange2":"1","RestaurantsDelivery":"True","HasTV":"True","RestaurantsTakeOut":"True"},"categories":["Tex-Mex","FastFood","Restaurants","Mexican","Food"],"hours":{"Monday":"10:45-22:0","Tuesday":"10:45-22:0","Wednesday":"10:45-22:0","Thursday":"10:45-22:0","Friday":"10:45-22:0","Saturday":"10:45-22:0","Sunday":"10:45-22:0"}},{"business_id":"XvRbI8AxtWpL9wd20wXMCA","name":"Bru","address":"1 Broadway","city":"Everett","state":"MA","postal_code":"02149","latitude":42.394855,"longitude":-71.068788,"stars":2.5,"review_count":12,"is_open":1,"attributes":{"Alcohol":"u'beer_and_wine'","WheelchairAccessible":"True","BikeParking":"True","BusinessAcceptsCreditCards":"True","RestaurantsTakeOut":"True","WiFi":"u'free'"},"categories":["Cafes","Salad","Food","Coffee&Tea","Restaurants","Sandwiches"],"hours":{"Friday":"7:0-22:0","Saturday":"7:0-2:0","Sunday":"7:0-19:0"}},{"business_id":"hVDSKGGxoehb1XpHr8Ee_g","name":"A Mano Italian Kitchen","address":"62 Wharf St","city":"Salem","state":"MA","postal_code":"01970","latitude":42.5202631142,"longitude":-70.8887098884,"stars":3.5,"review_count":18,"is_open":0,"attributes":{"BusinessAcceptsCreditCards":"True","Caters":"True","RestaurantsAttire":"u'dressy'","WiFi":"u'free'","Alcohol":"u'full_bar'","RestaurantsGoodForGroups":"True","NoiseLevel":"'average'","WheelchairAccessible":"True","RestaurantsTakeOut":"True","RestaurantsPriceRange2":"3","GoodForKids":"True","RestaurantsTableService":"True","HasTV":"True","RestaurantsReservations":"True"},"categories":["SpecialtyFood","PastaShops","Italian","Food","Restaurants","Pizza"],"hours":{"Tuesday":"17:0-22:0","Wednesday":"17:0-22:0","Thursday":"17:0-22:0","Friday":"17:0-22:0","Saturday":"17:0-22:0","Sunday":"17:0-21:0"}},{"business_id":"0Iva7qdGwb_Vv596pUdRtQ","name":"Sweet Basil","address":"942 Great Plain Ave","city":"Needham","state":"MA","postal_code":"02492","latitude":42.2801502,"longitude":-71.234977,"stars":4.5,"review_count":523,"is_open":1,"attributes":{"RestaurantsPriceRange2":"2","RestaurantsAttire":"'casual'","Corkage":"True","RestaurantsTakeOut":"True","NoiseLevel":"u'average'","BYOBCorkage":"'yes_corkage'","RestaurantsGoodForGroups":"True","WiFi":"u'no'","BikeParking":"True","BusinessAcceptsCreditCards":"True","OutdoorSeating":"True","HasTV":"True"},"categories":["Italian","Restaurants"],"hours":{"Monday":"17:0-22:0","Tuesday":"17:0-22:0","Wednesday":"17:0-22:0","Thursday":"17:0-22:0","Friday":"17:0-22:0","Saturday":"16:0-22:0","Sunday":"16:0-22:0"}},{"business_id":"rcERANnIyyyanLU0t2qdKg","name":"Scampo","address":"215 Charles St","city":"Boston","state":"MA","postal_code":"02114","latitude":42.3619616027,"longitude":-71.0704138066,"stars":4.0,"review_count":569,"is_open":1,"attributes":{"RestaurantsAttire":"u'dressy'","WiFi":"u'no'","Alcohol":"'full_bar'","BusinessAcceptsCreditCards":"True","HasTV":"True","RestaurantsPriceRange2":"3","OutdoorSeating":"True","RestaurantsReservations":"True","BikeParking":"True","RestaurantsGoodForGroups":"True","RestaurantsTakeOut":"True","NoiseLevel":"u'average'","RestaurantsDelivery":"True"},"categories":["WineBars","Bars","Restaurants","Nightlife","Breakfast&Brunch","Pizza","Gluten-Free","Italian"],"hours":{"Monday":"16:0-21:30","Tuesday":"16:0-21:30","Wednesday":"16:0-21:30","Thursday":"16:0-21:30","Friday":"16:0-21:30","Saturday":"16:0-21:30"}},{"business_id":"2vH58mhkEl8GdcDug1OwWg","name":"Gene's Chinese Flatbread Cafe","address":"466 Main St","city":"Woburn","state":"MA","postal_code":"01801","latitude":42.4815977128,"longitude":-71.1508771006,"stars":4.0,"review_count":233,"is_open":1,"attributes":{"RestaurantsAttire":"'casual'","RestaurantsTakeOut":"True","WheelchairAccessible":"True","BikeParking":"True","WiFi":"'no'","RestaurantsGoodForGroups":"True","RestaurantsPriceRange2":"1","Alcohol":"'none'","NoiseLevel":"'average'","RestaurantsDelivery":"True","BusinessAcceptsCreditCards":"True","GoodForKids":"True"},"categories":["Restaurants","Cafes","Noodles","Chinese"],"hours":{"Tuesday":"11:0-20:0","Wednesday":"11:0-20:0","Thursday":"11:0-20:0","Friday":"11:0-20:30","Saturday":"11:0-20:30","Sunday":"11:0-20:0"}},{"business_id":"8NrCMdAUOfFhLnfRUVJPDA","name":"Heidi's Restaurant","address":"723 Moody St","city":"Waltham","state":"MA","postal_code":"02453","latitude":42.3639823,"longitude":-71.2389551,"stars":3.5,"review_count":55,"is_open":1,"attributes":{"RestaurantsAttire":"u'casual'","GoodForKids":"True","RestaurantsPriceRange2":"1","HasTV":"True","NoiseLevel":"u'average'","WiFi":"u'no'","RestaurantsTakeOut":"True"},"categories":["Restaurants","Diners"],"hours":{"Monday":"5:0-15:0","Tuesday":"5:0-15:0","Wednesday":"5:0-15:0","Thursday":"5:0-15:0","Friday":"0:0-15:0","Saturday":"0:0-15:0","Sunday":"5:0-14:0"}},{"business_id":"U0lcHpqudvezLfto3LzMUQ","name":"The Dial at 907 Main","address":"907 Main St","city":"Cambridge","state":"MA","postal_code":"02139","latitude":42.3636264,"longitude":-71.0996514,"stars":4.5,"review_count":13,"is_open":1,"attributes":{"HappyHour":"True","WiFi":"u'free'","RestaurantsTableService":"True","Caters":"True","BusinessAcceptsCreditCards":"True","Alcohol":"u'full_bar'","OutdoorSeating":"True","WheelchairAccessible":"True","HasTV":"True","BikeParking":"True","RestaurantsReservations":"True","RestaurantsTakeOut":"True"},"categories":["Restaurants","American(Traditional)"],"hours":{"Monday":"16:0-21:0","Tuesday":"16:0-21:0","Wednesday":"16:0-21:0","Thursday":"16:0-21:0","Friday":"16:0-22:0","Saturday":"16:0-22:0","Sunday":"16:0-21:0"}},{"business_id":"wMIUdjntDop3maHR_1Nv7Q","name":"Osteria Posto","address":"99 3rd Ave","city":"Waltham","state":"MA","postal_code":"02451","latitude":42.3940148,"longitude":-71.2614821,"stars":3.5,"review_count":189,"is_open":1,"attributes":{"RestaurantsTableService":"True","RestaurantsReservations":"True","NoiseLevel":"u'average'","BusinessAcceptsCreditCards":"True","RestaurantsTakeOut":"True","WheelchairAccessible":"True","RestaurantsPriceRange2":"3","RestaurantsAttire":"u'casual'","BikeParking":"True","Caters":"True","OutdoorSeating":"True","WiFi":"u'free'","HasTV":"True","RestaurantsGoodForGroups":"True","Alcohol":"u'full_bar'","RestaurantsDelivery":"True"},"categories":["Restaurants","Italian"],"hours":{"Tuesday":"17:0-20:0","Wednesday":"17:0-20:0","Thursday":"17:0-20:0","Friday":"17:0-20:0","Saturday":"17:0-20:0","Sunday":"17:0-22:0"}},{"business_id":"HT22FICAqumPNoubT197Yw","name":"Navy Yard Bistro","address":"1 6th St","city":"Charlestown","state":"MA","postal_code":"02129","latitude":42.375161,"longitude":-71.054748,"stars":4.0,"review_count":220,"is_open":0,"attributes":{"OutdoorSeating":"True","RestaurantsGoodForGroups":"True","Alcohol":"'beer_and_wine'","RestaurantsReservations":"True","NoiseLevel":"u'average'","RestaurantsAttire":"'casual'","BikeParking":"True","BusinessAcceptsCreditCards":"True","BYOBCorkage":"'yes_free'","RestaurantsTakeOut":"True","Caters":"True","RestaurantsPriceRange2":"2","HasTV":"True","WiFi":"u'no'"},"categories":["WineBars","Nightlife","Seafood","Steakhouses","Bars","American(New)","French","Restaurants"],"hours":{"Monday":"17:0-21:0","Tuesday":"17:0-21:0","Wednesday":"17:0-21:30","Thursday":"17:0-22:0","Friday":"17:0-22:0","Saturday":"17:0-22:0","Sunday":"17:0-21:0"}},{"business_id":"J-vdWe5PX6TKkRAtra_L6w","name":"El Jalisco","address":"150 Cabot St","city":"Beverly","state":"MA","postal_code":"01915","latitude":42.546952,"longitude":-70.879683,"stars":4.0,"review_count":23,"is_open":1,"attributes":{"HasTV":"True"},"categories":["Restaurants","Mexican"],"hours":{"Monday":"11:0-21:0","Tuesday":"11:0-21:0","Wednesday":"11:0-21:0","Thursday":"11:0-21:0","Friday":"11:0-22:0","Saturday":"11:0-22:0","Sunday":"11:0-21:0"}},{"business_id":"LGCC_NYgWz9qUFyYqeS89g","name":"Happy Crab","address":"1137 Broadway","city":"Somerville","state":"MA","postal_code":"02144","latitude":42.4032789,"longitude":-71.1269177,"stars":4.5,"review_count":44,"is_open":1,"attributes":{"Corkage":"True","RestaurantsDelivery":"True","WiFi":"u'free'","RestaurantsReservations":"True","BusinessAcceptsCreditCards":"True","HasTV":"True","RestaurantsPriceRange2":"2","RestaurantsTableService":"True","Alcohol":"u'full_bar'","Smoking":"u'outdoor'","RestaurantsTakeOut":"True","BikeParking":"True","Caters":"True","WheelchairAccessible":"True","HappyHour":"True"},"categories":["Restaurants","Food","Seafood","Cajun\/Creole","CocktailBars","Bars","Nightlife","Southern","FoodDeliveryServices"],"hours":{"Monday":"15:0-21:30","Tuesday":"15:0-21:30","Wednesday":"15:0-21:30","Thursday":"12:0-21:30","Friday":"12:0-22:0","Saturday":"12:0-22:0","Sunday":"12:0-22:0"}},{"business_id":"raBxmj4BRiRq1cgmljqZhg","name":"Seoul Chicken","address":"1102 Washington St","city":"Boston","state":"MA","postal_code":"02118","latitude":42.344231,"longitude":-71.0656443,"stars":4.0,"review_count":6,"is_open":0,"attributes":{"RestaurantsTakeOut":"True","Caters":"True","BusinessAcceptsCreditCards":"True","RestaurantsDelivery":"True","WiFi":"u'free'"},"categories":["Restaurants","Korean","Barbeque"],"hours":{"Monday":"9:30-20:0","Tuesday":"9:30-20:0","Wednesday":"9:30-20:0","Thursday":"9:30-20:0","Friday":"9:30-20:0","Saturday":"9:30-20:0","Sunday":"9:30-20:0"}},{"business_id":"BdTXw_Xy7m3Jy25FMVXqSQ","name":"Bob's Surf & Turf","address":"400 Highland Ave, Ste 19","city":"Salem","state":"MA","postal_code":"01970","latitude":42.4964072823,"longitude":-70.9335332466,"stars":3.0,"review_count":46,"is_open":0,"attributes":{"GoodForKids":"True","HasTV":"True","RestaurantsGoodForGroups":"True","RestaurantsAttire":"u'casual'","RestaurantsTakeOut":"True","NoiseLevel":"u'average'","WiFi":"u'free'","Caters":"True","RestaurantsPriceRange2":"2","BikeParking":"True","BusinessAcceptsCreditCards":"True"},"categories":["Sandwiches","Restaurants","Burgers","ChickenWings","Seafood"],"hours":{"Monday":"11:0-20:0","Tuesday":"11:0-20:0","Wednesday":"11:0-20:0","Thursday":"11:0-20:0","Friday":"11:0-21:0","Saturday":"11:0-21:0","Sunday":"11:0-20:0"}},{"business_id":"R4R5YVnTa30a9dGiQUz8rw","name":"Sweet Kiwi","address":"472 Main St","city":"Wakefield","state":"MA","postal_code":"01880","latitude":42.5015655421,"longitude":-71.0691140562,"stars":4.5,"review_count":5,"is_open":0,"attributes":{"WiFi":"'free'","RestaurantsPriceRange2":"1","BikeParking":"True","GoodForKids":"True","RestaurantsAttire":"u'casual'","BusinessAcceptsCreditCards":"True","RestaurantsGoodForGroups":"True","NoiseLevel":"u'average'","RestaurantsTakeOut":"True"},"categories":["Food","Restaurants","IceCream&FrozenYogurt"],"hours":{"Monday":"12:0-22:0","Tuesday":"12:0-22:0","Wednesday":"12:0-22:0","Thursday":"12:0-22:0","Friday":"12:0-22:0","Saturday":"12:0-22:0","Sunday":"12:0-21:0"}},{"business_id":"7LFSgs2v3Kzjqd8SaRrB5A","name":"Banh Mi House","address":"48 Winter St","city":"Boston","state":"MA","postal_code":"02108","latitude":42.3560703,"longitude":-71.0618519,"stars":4.0,"review_count":114,"is_open":0,"attributes":{"RestaurantsPriceRange2":"1","BusinessAcceptsCreditCards":"True","NoiseLevel":"u'average'","RestaurantsAttire":"u'casual'","GoodForKids":"True","WiFi":"u'no'","RestaurantsDelivery":"True","BikeParking":"True"},"categories":["Vietnamese","Food","BubbleTea","Restaurants","Sandwiches"],"hours":{"Monday":"11:0-18:0","Tuesday":"11:0-18:0","Wednesday":"11:0-18:0","Thursday":"11:0-18:0","Friday":"11:0-18:0"}},{"business_id":"49wY3aTGhVJP9upnDRrgdQ","name":"Modern Underground Bar and Grill","address":"263 Hanover St","city":"Boston","state":"MA","postal_code":"02113","latitude":42.363249,"longitude":-71.054722,"stars":4.0,"review_count":14,"is_open":1,"attributes":{"RestaurantsTakeOut":"True","WiFi":"'no'","BusinessAcceptsCreditCards":"True","RestaurantsPriceRange2":"2","RestaurantsGoodForGroups":"True","HasTV":"True"},"categories":["Pubs","Nightlife","Breakfast&Brunch","Restaurants","Bars","Wraps","American(Traditional)"],"hours":{"Monday":"8:0-22:0","Tuesday":"8:0-22:0","Wednesday":"8:0-22:0","Thursday":"8:0-22:0","Friday":"8:0-23:0","Saturday":"8:0-0:0","Sunday":"8:0-1:0"}},{"business_id":"8ju300tn3uzUvIPIvmkRWA","name":"Club Passim","address":"47 Palmer St","city":"Cambridge","state":"MA","postal_code":"02138","latitude":42.3738387,"longitude":-71.1200116,"stars":4.5,"review_count":111,"is_open":1,"attributes":{"BusinessAcceptsCreditCards":"True","Alcohol":"u'beer_and_wine'","RestaurantsGoodForGroups":"True","RestaurantsPriceRange2":"2","NoiseLevel":"u'average'","RestaurantsTakeOut":"True","RestaurantsAttire":"'casual'","BikeParking":"True","RestaurantsTableService":"True","RestaurantsReservations":"True","Smoking":"u'no'"},"categories":["Breakfast&Brunch","American(New)","LocalServices","Restaurants","MusicVenues","Festivals","Arts&Entertainment","American(Traditional)","CommunityService\/Non-Profit","Nightlife","Education"],"hours":{"Monday":"18:0-23:0","Tuesday":"18:0-23:0","Wednesday":"18:0-23:0","Thursday":"18:0-23:0","Friday":"18:0-23:0","Saturday":"18:0-23:0","Sunday":"10:0-23:0"}},{"business_id":"zgT8RFiEO86UiD9bT9DB3A","name":"Thai Chili Basil","address":"373 Washington St","city":"Braintree","state":"MA","postal_code":"02184","latitude":42.219857,"longitude":-71.00414,"stars":3.5,"review_count":12,"is_open":0,"attributes":{"RestaurantsTakeOut":"True","GoodForKids":"True","HasTV":"True","RestaurantsPriceRange2":"1","RestaurantsDelivery":"True","BusinessAcceptsCreditCards":"True","RestaurantsGoodForGroups":"True","RestaurantsAttire":"'casual'","NoiseLevel":"'average'","WiFi":"'no'"},"categories":["Seafood","Salad","Thai","Restaurants"],"hours":{"Monday":"11:0-22:30","Tuesday":"11:0-22:30","Wednesday":"11:0-22:30","Thursday":"11:0-22:30","Friday":"11:0-23:30","Saturday":"11:0-23:30","Sunday":"12:0-22:30"}},{"business_id":"nyy38msunExaObJOeH7j0Q","name":"Bootleg Special","address":"400 Tremont St","city":"Boston","state":"MA","postal_code":"02116","latitude":42.3471281,"longitude":-71.068255,"stars":4.0,"review_count":641,"is_open":1,"attributes":{"Alcohol":"u'full_bar'","RestaurantsAttire":"'casual'","WheelchairAccessible":"True","NoiseLevel":"u'average'","BikeParking":"True","Caters":"True","RestaurantsGoodForGroups":"True","WiFi":"u'no'","RestaurantsPriceRange2":"2","RestaurantsTakeOut":"True","HasTV":"True","RestaurantsDelivery":"True","BusinessAcceptsCreditCards":"True","RestaurantsTableService":"True","RestaurantsReservations":"True","OutdoorSeating":"True"},"categories":["Seafood","Restaurants","Tapas\/SmallPlates","TapasBars","Bars","Nightlife","Cajun\/Creole","CocktailBars"],"hours":{"Monday":"11:0-22:0","Tuesday":"16:0-22:0","Wednesday":"16:0-22:0","Thursday":"16:0-22:0","Friday":"16:0-23:0","Saturday":"11:0-23:0","Sunday":"11:0-22:0"}},{"business_id":"cFEU4m0_5J8YDHJuCw-zDg","name":"Wendy's","address":"191 Newport Ave","city":"Quincy","state":"MA","postal_code":"02170","latitude":42.2690927,"longitude":-71.0239384,"stars":3.0,"review_count":42,"is_open":1,"attributes":{"HasTV":"True","RestaurantsTakeOut":"True","GoodForKids":"True","WiFi":"u'no'","RestaurantsGoodForGroups":"True","NoiseLevel":"u'average'","RestaurantsPriceRange2":"1","RestaurantsAttire":"'casual'","BusinessAcceptsCreditCards":"True","BikeParking":"True","DriveThru":"True","RestaurantsDelivery":"True"},"categories":["Burgers","Restaurants","FastFood"],"hours":{"Monday":"6:30-2:0","Tuesday":"6:30-2:0","Wednesday":"6:30-2:0","Thursday":"6:30-2:0","Friday":"6:30-3:0","Saturday":"6:30-3:0","Sunday":"6:30-2:0"}},{"business_id":"QfkY8mFyAIgxhBxr7sIwJw","name":"Swish Shabu","address":"84 86 Peterborough St","city":"Boston","state":"MA","postal_code":"02215","latitude":42.3431327,"longitude":-71.0988936,"stars":4.0,"review_count":223,"is_open":0,"attributes":{"WiFi":"u'no'","RestaurantsReservations":"True","OutdoorSeating":"True","RestaurantsGoodForGroups":"True","BikeParking":"True","RestaurantsAttire":"u'casual'","BusinessAcceptsCreditCards":"True","HasTV":"True","NoiseLevel":"u'average'","Alcohol":"u'beer_and_wine'","RestaurantsPriceRange2":"2","RestaurantsTakeOut":"True","GoodForKids":"True"},"categories":["Do-It-YourselfFood","SushiBars","Restaurants","Food","HotPot","Japanese"],"hours":{"Monday":"11:0-23:0","Tuesday":"11:0-23:0","Wednesday":"11:0-23:0","Thursday":"11:0-23:0","Friday":"11:0-23:0","Saturday":"11:0-23:0","Sunday":"11:0-23:0"}},{"business_id":"fmw_0vST7GjdibObHWLOuQ","name":"Franklin Cafe","address":"278 Shawmut Ave","city":"Boston","state":"MA","postal_code":"02118","latitude":42.3429145,"longitude":-71.0689787,"stars":4.0,"review_count":509,"is_open":1,"attributes":{"RestaurantsTakeOut":"True","BusinessAcceptsCreditCards":"True","Alcohol":"'full_bar'","RestaurantsAttire":"'casual'","WiFi":"u'no'","RestaurantsPriceRange2":"2","BikeParking":"True","NoiseLevel":"u'average'","HasTV":"True","RestaurantsDelivery":"True","BYOBCorkage":"'no'"},"categories":["American(Traditional)","American(New)","Lounges","Nightlife","Bars","Restaurants"],"hours":{"Tuesday":"17:0-2:0","Wednesday":"17:0-2:0","Thursday":"17:0-2:0","Friday":"17:0-2:0","Saturday":"17:0-2:0","Sunday":"17:0-2:0"}},{"business_id":"PXwuFdwPtVtYtOL-zxcdMw","name":"Common Ground Cafe","address":"2243 Dorchester Ave","city":"Dorchester Center","state":"MA","postal_code":"02124","latitude":42.2738032,"longitude":-71.0677902,"stars":4.0,"review_count":30,"is_open":0,"attributes":{"GoodForKids":"True","BYOBCorkage":"'no'","RestaurantsTakeOut":"True","RestaurantsAttire":"'casual'","BusinessAcceptsCreditCards":"True","Alcohol":"'none'","RestaurantsGoodForGroups":"True","RestaurantsPriceRange2":"1"},"categories":["American(New)","Restaurants","Vegetarian"],"hours":{"Monday":"7:0-21:0","Tuesday":"7:0-21:0","Wednesday":"7:0-21:0","Thursday":"7:0-21:0","Friday":"7:0-15:0"}},{"business_id":"yumU5bbDDAX6wdrJ7_Sxfw","name":"Nhu Lan","address":"1157 Dorchester Ave","city":"Boston","state":"MA","postal_code":"02125","latitude":42.311336194,"longitude":-71.0577326681,"stars":3.5,"review_count":13,"is_open":1,"attributes":{"BusinessAcceptsCreditCards":"True","RestaurantsGoodForGroups":"True","RestaurantsReservations":"True","NoiseLevel":"u'average'","HasTV":"True","RestaurantsTakeOut":"True","GoodForKids":"True"},"categories":["Vietnamese","Restaurants"],"hours":{"Monday":"9:0-21:0","Tuesday":"9:0-21:0","Wednesday":"9:0-21:0","Thursday":"9:0-21:0","Friday":"9:0-22:30","Saturday":"9:0-22:30","Sunday":"9:0-21:0"}},{"business_id":"GwwX5JjuOVpw0ZlBvCqEOg","name":"Coppa","address":"253 Shawmut Ave","city":"Boston","state":"MA","postal_code":"02118","latitude":42.3434463,"longitude":-71.0687076,"stars":4.0,"review_count":877,"is_open":1,"attributes":{"RestaurantsReservations":"True","RestaurantsPriceRange2":"3","Alcohol":"'beer_and_wine'","RestaurantsDelivery":"True","RestaurantsTakeOut":"True","BusinessAcceptsCreditCards":"True","OutdoorSeating":"True","RestaurantsAttire":"u'casual'","BikeParking":"True","WiFi":"u'free'","NoiseLevel":"u'average'"},"categories":["Breakfast&Brunch","American(New)","Nightlife","Bars","Restaurants","WineBars","PastaShops","SpecialtyFood","Italian","Pizza","Tapas\/SmallPlates","Food"],"hours":{"Tuesday":"16:0-21:30","Wednesday":"16:0-21:30","Thursday":"16:0-21:30","Friday":"16:0-21:30","Saturday":"11:0-21:30","Sunday":"11:0-21:30"}},{"business_id":"Pm-PU6CldkzBm4ci4r66LQ","name":"The Reef","address":"1 Central Wharf","city":"Boston","state":"MA","postal_code":"02110","latitude":42.3593017,"longitude":-71.0491268,"stars":3.0,"review_count":27,"is_open":0,"attributes":{"GoodForKids":"True","OutdoorSeating":"True","BusinessAcceptsCreditCards":"True","RestaurantsTakeOut":"True","RestaurantsAttire":"u'casual'","Alcohol":"u'full_bar'","RestaurantsGoodForGroups":"True","RestaurantsPriceRange2":"2","HasTV":"True","WiFi":"u'no'","BikeParking":"True","NoiseLevel":"u'average'"},"categories":["Nightlife","American(Traditional)","Sandwiches","Restaurants","Bars"],"hours":{"Friday":"11:30-20:0","Saturday":"11:30-20:0","Sunday":"11:30-20:0"}},{"business_id":"N2lTGN6EuQwuEdDGPOkGow","name":"The Stones Common House & Kitchen","address":"380 Main St","city":"Stoneham","state":"MA","postal_code":"02180","latitude":42.47964,"longitude":-71.099994,"stars":4.0,"review_count":129,"is_open":1,"attributes":{"BusinessAcceptsCreditCards":"True","Alcohol":"u'full_bar'","WiFi":"u'free'","RestaurantsPriceRange2":"2","RestaurantsTableService":"True","WheelchairAccessible":"True","HasTV":"True","GoodForKids":"True","RestaurantsAttire":"'casual'","HappyHour":"True","RestaurantsReservations":"True","RestaurantsGoodForGroups":"True","RestaurantsTakeOut":"True","RestaurantsDelivery":"True"},"categories":["Venues&EventSpaces","Tapas\/SmallPlates","American(New)","Restaurants","CocktailBars","Italian","Gastropubs","EventPlanning&Services","American(Traditional)","Nightlife","Bars"],"hours":{"Tuesday":"16:30-23:0","Wednesday":"16:30-23:0","Thursday":"11:30-23:0","Friday":"11:30-0:30","Saturday":"11:30-0:30","Sunday":"11:0-23:30"}},{"business_id":"Q1TofnFQ4sMFA47sGYAyeg","name":"Mija Cantina & Tequila Bar","address":"1 S Market St","city":"Boston","state":"MA","postal_code":"02109","latitude":42.360285,"longitude":-71.055557,"stars":2.5,"review_count":565,"is_open":1,"attributes":{"RestaurantsAttire":"u'casual'","RestaurantsGoodForGroups":"True","Alcohol":"u'full_bar'","BusinessAcceptsCreditCards":"True","OutdoorSeating":"True","RestaurantsDelivery":"True","RestaurantsPriceRange2":"2","RestaurantsReservations":"True","NoiseLevel":"u'loud'","HasTV":"True","BikeParking":"True","RestaurantsTakeOut":"True","RestaurantsTableService":"True","Smoking":"u'no'","HappyHour":"True","WiFi":"u'no'"},"categories":["Mexican","Nightlife","Restaurants","Bars"],"hours":{"Wednesday":"15:0-22:0","Thursday":"15:0-22:0","Friday":"12:0-23:0","Saturday":"11:30-23:0","Sunday":"11:30-22:0"}},{"business_id":"-G8UiqYsysIPY3FRmKoTqw","name":"Lincoln Street Coffee","address":"15 S Lincoln St","city":"Newton Highlands","state":"MA","postal_code":"02461","latitude":42.321783,"longitude":-71.2068597,"stars":4.0,"review_count":44,"is_open":0,"attributes":{"OutdoorSeating":"True","WiFi":"'free'","BusinessAcceptsCreditCards":"True","RestaurantsPriceRange2":"2"},"categories":["Restaurants","Coffee&Tea","Food"],"hours":{"Monday":"7:0-18:0","Tuesday":"7:0-18:0","Wednesday":"7:0-18:0","Thursday":"7:0-18:0","Friday":"7:0-18:0","Saturday":"8:0-18:0","Sunday":"8:0-17:0"}},{"business_id":"sd9b3n1GWBCPmvufiOoX4Q","name":"P.F. Chang's","address":"410 Legacy Pl","city":"Dedham","state":"MA","postal_code":"02026","latitude":42.231654,"longitude":-71.179326,"stars":2.5,"review_count":313,"is_open":1,"attributes":{"RestaurantsAttire":"u'casual'","RestaurantsReservations":"True","RestaurantsGoodForGroups":"True","NoiseLevel":"u'average'","WiFi":"'free'","Caters":"True","RestaurantsPriceRange2":"2","Alcohol":"u'full_bar'","BusinessAcceptsCreditCards":"True","GoodForKids":"True","OutdoorSeating":"True","HasTV":"True","RestaurantsTakeOut":"True","BikeParking":"True","HappyHour":"True","RestaurantsDelivery":"True"},"categories":["AsianFusion","Gluten-Free","Restaurants","Chinese"],"hours":{"Monday":"11:0-21:0","Tuesday":"11:0-21:0","Wednesday":"11:0-21:0","Thursday":"11:0-21:0","Friday":"11:0-22:0","Saturday":"11:0-22:0","Sunday":"11:0-21:0"}},{"business_id":"2IXSHR4pjeevJvk6eRoPgg","name":"Upper Crust Pizzeria","address":"94 Main St","city":"Watertown","state":"MA","postal_code":"02472","latitude":42.3667988,"longitude":-71.1868213,"stars":2.5,"review_count":105,"is_open":0,"attributes":{"RestaurantsPriceRange2":"2","BusinessAcceptsCreditCards":"True","RestaurantsGoodForGroups":"True","HasTV":"True","Alcohol":"u'beer_and_wine'","RestaurantsDelivery":"True","NoiseLevel":"u'average'","RestaurantsTakeOut":"True","RestaurantsAttire":"'casual'","BYOBCorkage":"'yes_free'","GoodForKids":"True","Caters":"True","WiFi":"u'no'","BikeParking":"True"},"categories":["Restaurants","Pizza"],"hours":{"Monday":"11:30-22:0","Tuesday":"11:30-22:0","Wednesday":"11:30-22:0","Thursday":"11:30-22:0","Friday":"11:30-23:0","Saturday":"11:30-23:0","Sunday":"11:30-22:0"}},{"business_id":"rM0sHlCj-sAr-shZdTsxYQ","name":"Grateful Dedham Diner","address":"573 High St","city":"Dedham","state":"MA","postal_code":"02026","latitude":42.2481968,"longitude":-71.1727214,"stars":3.5,"review_count":88,"is_open":1,"attributes":{"RestaurantsTableService":"True","NoiseLevel":"u'average'","RestaurantsGoodForGroups":"True","BusinessAcceptsCreditCards":"True","RestaurantsTakeOut":"True"},"categories":["Sandwiches","Diners","Breakfast&Brunch","Restaurants","Burgers"],"hours":{"Monday":"7:0-15:0","Tuesday":"7:0-15:0","Wednesday":"7:0-15:0","Thursday":"7:0-15:0","Friday":"7:0-15:0","Saturday":"7:0-15:0","Sunday":"7:0-15:0"}},{"business_id":"W_YBG1lPLB-cehQbwtXKow","name":"Chatime","address":"333 Huntington Ave","city":"Boston","state":"MA","postal_code":"02115","latitude":42.3407581,"longitude":-71.0884496,"stars":2.5,"review_count":74,"is_open":1,"attributes":{"BusinessAcceptsCreditCards":"True","RestaurantsTakeOut":"True","BikeParking":"True","RestaurantsPriceRange2":"1","WiFi":"u'free'","OutdoorSeating":"True","RestaurantsDelivery":"True"},"categories":["Food","BubbleTea","Restaurants","Coffee&Tea","Taiwanese","JuiceBars&Smoothies"],"hours":{"Monday":"11:0-17:0","Tuesday":"11:0-17:0","Wednesday":"11:0-17:0","Thursday":"11:0-17:0","Friday":"11:0-17:0","Saturday":"11:0-17:0","Sunday":"11:0-17:0"}},{"business_id":"vChCvHlENOV9GWHKCF2emQ","name":"Pizza Bella Mia","address":"18 Water St","city":"Danvers","state":"MA","postal_code":"01923","latitude":42.554272,"longitude":-70.924539,"stars":2.5,"review_count":72,"is_open":1,"attributes":{"RestaurantsPriceRange2":"1","RestaurantsTakeOut":"True","GoodForKids":"True","RestaurantsDelivery":"True","RestaurantsAttire":"u'casual'","HasTV":"True","Caters":"True","BusinessAcceptsCreditCards":"True","NoiseLevel":"u'quiet'","WiFi":"u'no'","BikeParking":"True"},"categories":["Italian","Pizza","Restaurants"],"hours":{"Monday":"10:30-22:0","Tuesday":"10:30-22:0","Wednesday":"10:30-22:0","Thursday":"10:30-22:0","Friday":"10:30-23:0","Saturday":"10:30-23:0","Sunday":"10:30-22:0"}},{"business_id":"BJp6E-If4MWLrOPGinXhcw","name":"Korean Grille","address":"1429 Hancock St","city":"Quincy","state":"MA","postal_code":"02169","latitude":42.2491724,"longitude":-71.0026352,"stars":3.0,"review_count":117,"is_open":1,"attributes":{"BikeParking":"True","WiFi":"u'free'","RestaurantsDelivery":"True","BusinessAcceptsCreditCards":"True","NoiseLevel":"u'average'","RestaurantsReservations":"True","GoodForKids":"True","Alcohol":"u'full_bar'","Caters":"True","RestaurantsTakeOut":"True","RestaurantsPriceRange2":"2","RestaurantsAttire":"u'casual'"},"categories":["Restaurants","Korean"],"hours":{"Tuesday":"11:30-22:30","Wednesday":"11:30-22:30","Thursday":"11:30-22:30","Friday":"11:30-22:30","Saturday":"12:0-22:30","Sunday":"12:0-22:30"}},{"business_id":"BOu8G-QQMOKZRjw79HM-lQ","name":"Bella Luna Restaurant & The Milky Way Lounge","address":"284 Amory St","city":"Jamaica Plain","state":"MA","postal_code":"02130","latitude":42.3144895,"longitude":-71.1037888,"stars":3.5,"review_count":500,"is_open":0,"attributes":{"RestaurantsGoodForGroups":"True","RestaurantsPriceRange2":"2","BusinessAcceptsCreditCards":"True","Alcohol":"u'full_bar'","RestaurantsReservations":"True","RestaurantsAttire":"u'casual'","BYOBCorkage":"'no'","WiFi":"u'no'","HasTV":"True","RestaurantsTakeOut":"True","RestaurantsDelivery":"True","GoodForKids":"True","NoiseLevel":"u'average'","OutdoorSeating":"True","GoodForDancing":"True","BikeParking":"True"},"categories":["Italian","Restaurants","Nightlife","Pizza","Food","American(New)","Lounges","Bars"],"hours":{"Monday":"11:30-23:30","Tuesday":"11:30-23:30","Wednesday":"11:30-0:0","Thursday":"11:30-1:0","Friday":"11:30-1:0","Saturday":"11:30-1:0","Sunday":"17:0-23:0"}},{"business_id":"3KrxlYenUbAheaJWLTh7Zw","name":"Domino's Pizza","address":"207 Adams St","city":"Dorchester","state":"MA","postal_code":"02122","latitude":42.3018553,"longitude":-71.0601815,"stars":1.0,"review_count":99,"is_open":1,"attributes":{"NoiseLevel":"u'quiet'","WiFi":"u'no'","RestaurantsAttire":"u'casual'","RestaurantsDelivery":"True","RestaurantsTakeOut":"True","BusinessAcceptsCreditCards":"True","RestaurantsPriceRange2":"1","HasTV":"True"},"categories":["Food","ChickenWings","Sandwiches","Restaurants","Pizza"],"hours":{"Monday":"10:0-0:0","Tuesday":"10:0-1:0","Wednesday":"10:0-1:0","Thursday":"10:0-3:0","Friday":"10:0-3:0","Saturday":"10:0-3:0","Sunday":"10:0-1:0"}},{"business_id":"imBg1-qcZ9Wwvw8KsQBcUg","name":"The Ginger Man","address":"148 State St","city":"Boston","state":"MA","postal_code":"02109","latitude":42.3593454,"longitude":-71.0542107,"stars":4.0,"review_count":108,"is_open":1,"attributes":{"RestaurantsTableService":"True","RestaurantsPriceRange2":"2","HappyHour":"True","RestaurantsGoodForGroups":"True","BusinessAcceptsCreditCards":"True","Alcohol":"u'full_bar'","NoiseLevel":"u'average'","Smoking":"u'no'","WiFi":"'free'","RestaurantsAttire":"'casual'","HasTV":"True"},"categories":["Food","Restaurants","Beer","Wine&Spirits","Nightlife","American(Traditional)","BeerBar","Bars"],"hours":{"Monday":"11:30-0:0","Tuesday":"11:30-0:0","Wednesday":"11:30-0:0","Thursday":"11:30-0:0","Friday":"11:30-2:0","Saturday":"13:0-2:0","Sunday":"13:0-0:0"}},{"business_id":"aHtRqwCT2KUP-hPmKjaCrA","name":"Upper Crust Pizzeria","address":"49 Brattle St, Ste B","city":"Cambridge","state":"MA","postal_code":"02138","latitude":42.3742731124,"longitude":-71.1215263775,"stars":3.0,"review_count":139,"is_open":0,"attributes":{"RestaurantsTakeOut":"True","RestaurantsAttire":"u'casual'","RestaurantsDelivery":"True","WiFi":"u'no'","RestaurantsPriceRange2":"1","GoodForKids":"True","BusinessAcceptsCreditCards":"True","NoiseLevel":"u'average'","HasTV":"True","Caters":"True"},"categories":["Pizza","Restaurants"],"hours":{"Monday":"11:0-23:0","Tuesday":"11:0-23:0","Wednesday":"11:0-23:0","Thursday":"11:0-23:0","Friday":"11:0-23:0","Saturday":"11:0-23:0","Sunday":"11:0-23:0"}},{"business_id":"7uVG6zP4VRccbPXG0WmiEg","name":"Limoncello 2","address":"76 Salem St","city":"Boston","state":"MA","postal_code":"02113","latitude":42.3636162,"longitude":-71.0560214,"stars":4.0,"review_count":12,"is_open":0,"attributes":{"RestaurantsReservations":"True","BusinessAcceptsCreditCards":"True","RestaurantsGoodForGroups":"True","Alcohol":"u'full_bar'","NoiseLevel":"u'very_loud'","RestaurantsPriceRange2":"2","RestaurantsAttire":"u'casual'","RestaurantsTakeOut":"True","RestaurantsTableService":"True","HasTV":"True"},"categories":["Italian","Restaurants"],"hours":{"Monday":"10:0-22:0","Tuesday":"10:0-22:0","Wednesday":"10:0-22:0","Thursday":"11:30-22:0","Friday":"11:30-22:0","Saturday":"11:30-22:0","Sunday":"11:30-22:0"}},{"business_id":"xdHgcpM1NQNoSOuuXECqcw","name":"Khelsea's Pizza","address":"158 Washington Ave","city":"Chelsea","state":"MA","postal_code":"02150","latitude":42.398023,"longitude":-71.0311014,"stars":2.0,"review_count":24,"is_open":1,"attributes":{"RestaurantsPriceRange2":"1","RestaurantsAttire":"u'casual'","RestaurantsGoodForGroups":"True","BikeParking":"True","HasTV":"True","GoodForKids":"True","BusinessAcceptsCreditCards":"True","RestaurantsDelivery":"True","WiFi":"'free'","RestaurantsTakeOut":"True","OutdoorSeating":"True"},"categories":["Pizza","American(Traditional)","Restaurants"],"hours":{"Monday":"11:0-22:0","Tuesday":"11:0-22:0","Wednesday":"11:0-22:0","Thursday":"11:0-22:0","Friday":"11:0-22:0","Saturday":"11:0-22:0","Sunday":"11:0-22:0"}},{"business_id":"ptwwkiGwta8jqooNZt0_0w","name":"Feng Shui Restaurant & Lounge","address":"2200 District Ave","city":"Burlington","state":"MA","postal_code":"01803","latitude":42.4847528,"longitude":-71.2108057,"stars":3.5,"review_count":110,"is_open":1,"attributes":{"WheelchairAccessible":"True","Alcohol":"u'full_bar'","Caters":"True","WiFi":"u'free'","RestaurantsTableService":"True","OutdoorSeating":"True","RestaurantsDelivery":"True","RestaurantsPriceRange2":"2","RestaurantsGoodForGroups":"True","BikeParking":"True","NoiseLevel":"u'average'","BusinessAcceptsCreditCards":"True","RestaurantsTakeOut":"True","RestaurantsAttire":"u'casual'","HasTV":"True"},"categories":["Chinese","Teppanyaki","CocktailBars","SushiBars","Bars","Japanese","Restaurants","Nightlife"],"hours":{"Tuesday":"11:30-22:0","Wednesday":"11:30-22:0","Thursday":"11:30-22:0","Friday":"11:30-23:0","Saturday":"11:30-23:0","Sunday":"11:30-22:0"}},{"business_id":"Co394lQ-3el7bcavAW9Haw","name":"La Brasa","address":"124 Broadway","city":"Somerville","state":"MA","postal_code":"02145","latitude":42.387778,"longitude":-71.084451,"stars":3.5,"review_count":330,"is_open":1,"attributes":{"WiFi":"u'free'","RestaurantsReservations":"True","Alcohol":"u'full_bar'","BusinessAcceptsCreditCards":"True","Caters":"True","WheelchairAccessible":"True","RestaurantsGoodForGroups":"True","BikeParking":"True","RestaurantsAttire":"u'casual'","RestaurantsPriceRange2":"2","RestaurantsTableService":"True","RestaurantsDelivery":"True","NoiseLevel":"u'average'","RestaurantsTakeOut":"True"},"categories":["Mexican","American(Traditional)","American(New)","Steakhouses","Restaurants"],"hours":{"Tuesday":"17:0-21:0","Wednesday":"17:0-21:0","Thursday":"17:0-21:0","Friday":"17:0-21:30","Saturday":"17:0-21:30"}},{"business_id":"bsP7pGF9kzPezcn_9cS7TQ","name":"Sakura Japanese Restaurant","address":"5 Pine St","city":"Waltham","state":"MA","postal_code":"02453","latitude":42.3715461,"longitude":-71.2364217,"stars":4.0,"review_count":172,"is_open":1,"attributes":{"RestaurantsAttire":"u'casual'","WiFi":"u'free'","HasTV":"True","BusinessAcceptsCreditCards":"True","RestaurantsGoodForGroups":"True","RestaurantsPriceRange2":"2","RestaurantsTableService":"True","NoiseLevel":"u'quiet'","GoodForKids":"True","RestaurantsReservations":"True","BikeParking":"True","RestaurantsTakeOut":"True","RestaurantsDelivery":"True"},"categories":["AsianFusion","SushiBars","Restaurants","Japanese"],"hours":{"Monday":"16:0-22:0","Tuesday":"16:0-22:0","Wednesday":"16:0-22:0","Thursday":"16:0-22:0","Friday":"16:0-23:0","Saturday":"11:30-23:0","Sunday":"12:0-22:0"}},{"business_id":"PPrSUsX7-G31qlnjMUWUlA","name":"Flamers Grill","address":"800 Boylston St","city":"Boston","state":"MA","postal_code":"02199","latitude":42.3484845,"longitude":-71.082457,"stars":3.5,"review_count":34,"is_open":0,"attributes":{"RestaurantsPriceRange2":"1","RestaurantsGoodForGroups":"True","RestaurantsAttire":"u'casual'","RestaurantsTakeOut":"True","BikeParking":"True","GoodForKids":"True","Alcohol":"'none'","WiFi":"u'free'","BusinessAcceptsCreditCards":"True","NoiseLevel":"u'average'"},"categories":["Burgers","American(Traditional)","Restaurants","Cheesesteaks"],"hours":{"Monday":"7:0-21:0","Tuesday":"7:0-21:0","Wednesday":"7:0-21:0","Thursday":"7:0-21:0","Friday":"7:0-21:0","Saturday":"7:0-21:0","Sunday":"7:0-19:0"}},{"business_id":"hmKP0UCU1JYt-IUNm2sNPA","name":"Yuki Shabu-Chinese Gourmet","address":"16 Bow St","city":"Somerville","state":"MA","postal_code":"02143","latitude":42.3807113,"longitude":-71.0972088,"stars":4.0,"review_count":110,"is_open":0,"attributes":{"WheelchairAccessible":"True","RestaurantsTableService":"True","RestaurantsTakeOut":"True","RestaurantsGoodForGroups":"True","GoodForKids":"True","RestaurantsPriceRange2":"2","HasTV":"True","NoiseLevel":"u'quiet'","BusinessAcceptsCreditCards":"True","Alcohol":"u'full_bar'","RestaurantsDelivery":"True","RestaurantsAttire":"u'casual'","WiFi":"u'free'","RestaurantsReservations":"True"},"categories":["Restaurants","HotPot","Chinese"],"hours":{"Monday":"11:30-22:30","Tuesday":"11:30-22:30","Wednesday":"11:30-22:30","Thursday":"11:30-22:30","Friday":"11:30-23:30","Saturday":"11:30-23:30","Sunday":"12:0-22:30"}},{"business_id":"u60k13aJPDvXvEHQAyL3Vw","name":"Culinary Delights","address":"229 N Main St","city":"Natick","state":"MA","postal_code":"01760","latitude":42.3033997943,"longitude":-71.3608741619,"stars":4.5,"review_count":87,"is_open":1,"attributes":{"GoodForKids":"True","BikeParking":"True","RestaurantsTakeOut":"True","NoiseLevel":"u'quiet'","HasTV":"True","RestaurantsAttire":"u'casual'","RestaurantsGoodForGroups":"True","RestaurantsPriceRange2":"1","WiFi":"u'free'","BusinessAcceptsCreditCards":"True","Caters":"True","WheelchairAccessible":"True"},"categories":["Breakfast&Brunch","Delis","Sandwiches","Restaurants","HotDogs","Mediterranean"],"hours":{"Tuesday":"8:0-19:0","Wednesday":"6:0-14:0","Thursday":"8:0-19:0","Friday":"6:0-14:0","Saturday":"8:0-16:0","Sunday":"11:0-16:0"}},{"business_id":"wxZPr6u2_9j_t7-yRw7vNQ","name":"Green Tea Cafe","address":"1899 Main St","city":"Tewksbury","state":"MA","postal_code":"01876","latitude":42.5904,"longitude":-71.2056,"stars":4.0,"review_count":8,"is_open":0,"attributes":{"BusinessAcceptsCreditCards":"True","RestaurantsTakeOut":"True","NoiseLevel":"u'average'","RestaurantsGoodForGroups":"True","RestaurantsDelivery":"True","RestaurantsAttire":"u'casual'","WiFi":"u'no'","GoodForKids":"True","RestaurantsPriceRange2":"2","HasTV":"True","RestaurantsTableService":"True"},"categories":["Cafes","Korean","AsianFusion","SushiBars","Restaurants"],"hours":{"Tuesday":"11:30-22:0","Wednesday":"11:30-22:0","Thursday":"11:30-22:0","Friday":"11:30-23:0","Saturday":"11:30-23:0","Sunday":"12:0-21:30"}},{"business_id":"OThCf_WpfyqnSk95w_PaaQ","name":"Super Chef Pizza","address":"195 Newport Ave","city":"Quincy","state":"MA","postal_code":"02170","latitude":42.269245,"longitude":-71.0244724,"stars":3.0,"review_count":58,"is_open":0,"attributes":{"RestaurantsAttire":"u'casual'","GoodForKids":"True","BusinessAcceptsCreditCards":"True","HasTV":"True","RestaurantsDelivery":"True","RestaurantsTakeOut":"True","BikeParking":"True","RestaurantsGoodForGroups":"True","WiFi":"'no'","RestaurantsPriceRange2":"1","NoiseLevel":"u'average'"},"categories":["Pizza","Restaurants"],"hours":{"Monday":"10:0-23:0","Tuesday":"10:0-23:0","Wednesday":"10:0-23:0","Thursday":"10:0-23:0","Friday":"10:0-23:0","Saturday":"10:0-23:0","Sunday":"11:0-22:0"}},{"business_id":"XUF26OSP_sSm5JWI5OXoxg","name":"Melo's Caf\u00e9","address":"476 Saratoga St","city":"Boston","state":"MA","postal_code":"02128","latitude":42.380187,"longitude":-71.027218,"stars":4.5,"review_count":13,"is_open":1,"attributes":{"BikeParking":"True","BusinessAcceptsCreditCards":"True","WiFi":"'free'","RestaurantsPriceRange2":"1","RestaurantsTakeOut":"True"},"categories":["Coffee&Tea","Food","Bakeries","Cafes","Restaurants","JuiceBars&Smoothies"],"hours":{"Monday":"6:0-20:0","Tuesday":"6:0-20:0","Wednesday":"6:0-19:0","Thursday":"6:0-20:0","Friday":"6:0-20:0","Saturday":"6:0-20:0","Sunday":"7:0-18:0"}},{"business_id":"UR8asBQTJgVmXqQw-w5AnQ","name":"Caf\u00e9nation","address":"380 Washington St","city":"Brighton","state":"MA","postal_code":"02135","latitude":42.3489915951,"longitude":-71.1539424128,"stars":4.0,"review_count":447,"is_open":1,"attributes":{"WiFi":"'free'","RestaurantsAttire":"'casual'","BYOBCorkage":"'no'","GoodForKids":"True","BusinessAcceptsCreditCards":"True","BikeParking":"True","RestaurantsPriceRange2":"1","Alcohol":"'none'","NoiseLevel":"u'average'","RestaurantsTakeOut":"True","HasTV":"True","RestaurantsDelivery":"True"},"categories":["Creperies","Breakfast&Brunch","Food","Restaurants","Coffee&Tea"],"hours":{"Monday":"7:0-15:0","Tuesday":"7:0-15:0","Wednesday":"7:0-15:0","Thursday":"7:0-15:0","Friday":"7:0-15:0","Saturday":"8:0-15:0"}},{"business_id":"757zI3bNk4CZ9cql3T6rbQ","name":"Pho 98\u00b0C","address":"92 N Main St","city":"Randolph","state":"MA","postal_code":"02368","latitude":42.1644871,"longitude":-71.0426179,"stars":4.5,"review_count":232,"is_open":1,"attributes":{"Smoking":"u'outdoor'","HasTV":"True","RestaurantsReservations":"True","RestaurantsTakeOut":"True","RestaurantsGoodForGroups":"True","NoiseLevel":"'average'","RestaurantsDelivery":"True","GoodForKids":"True","WheelchairAccessible":"True","BikeParking":"True","BusinessAcceptsCreditCards":"True","RestaurantsTableService":"True","WiFi":"'free'","RestaurantsAttire":"u'casual'","RestaurantsPriceRange2":"2","Alcohol":"u'full_bar'","Caters":"True"},"categories":["Vietnamese","Nightlife","Bars","Food","SpecialtyFood","HotPot","Chinese","BeerBar","EthnicFood","BubbleTea","WineBars","Restaurants"],"hours":{"Monday":"10:0-22:0","Tuesday":"10:0-22:0","Wednesday":"10:0-22:0","Thursday":"10:0-22:0","Friday":"10:0-22:0","Saturday":"10:0-22:0","Sunday":"10:0-22:0"}},{"business_id":"KbPL1DxBo2fGMTEkU2yoTg","name":"Fasika Ethiopian Restaurant","address":"145 Broadway","city":"Somerville","state":"MA","postal_code":"02145","latitude":42.3883488,"longitude":-71.0848299,"stars":3.5,"review_count":203,"is_open":1,"attributes":{"BusinessAcceptsCreditCards":"True","RestaurantsTakeOut":"True","Alcohol":"'full_bar'","RestaurantsAttire":"'casual'","GoodForKids":"True","RestaurantsPriceRange2":"2","WiFi":"u'no'","RestaurantsGoodForGroups":"True","BikeParking":"True","NoiseLevel":"u'average'","HasTV":"True"},"categories":["Ethiopian","Vegetarian","African","Restaurants"],"hours":{"Monday":"17:30-22:0","Tuesday":"17:30-22:0","Wednesday":"17:30-22:0","Thursday":"17:30-22:0","Friday":"17:30-23:0","Saturday":"14:0-23:0","Sunday":"14:0-23:0"}},{"business_id":"SSmHkP0tZ4TKn_YUOEkVUg","name":"Cafe Sushi","address":"1105 Massachusetts Ave","city":"Cambridge","state":"MA","postal_code":"02138","latitude":42.370572,"longitude":-71.113353,"stars":4.0,"review_count":737,"is_open":1,"attributes":{"RestaurantsTakeOut":"True","Caters":"True","NoiseLevel":"u'average'","BusinessAcceptsCreditCards":"True","BikeParking":"True","RestaurantsAttire":"'casual'","RestaurantsPriceRange2":"2","BYOBCorkage":"'yes_free'","WiFi":"u'free'","RestaurantsGoodForGroups":"True","Alcohol":"'beer_and_wine'","RestaurantsDelivery":"True"},"categories":["Japanese","Restaurants","SushiBars"],"hours":{"Tuesday":"16:30-20:0","Wednesday":"16:30-20:0","Thursday":"16:30-20:0","Friday":"16:30-20:30","Saturday":"16:30-20:30"}},{"business_id":"EMgU4Dz69B4A2_GgNlzqaw","name":"Farmstead Table","address":"71 Union St","city":"Newton","state":"MA","postal_code":"02459","latitude":42.3296183,"longitude":-71.1926864,"stars":4.0,"review_count":241,"is_open":1,"attributes":{"RestaurantsTakeOut":"True","BikeParking":"True","RestaurantsPriceRange2":"3","RestaurantsGoodForGroups":"True","Alcohol":"u'full_bar'","RestaurantsReservations":"True","RestaurantsAttire":"u'casual'","NoiseLevel":"u'average'","BusinessAcceptsCreditCards":"True","WiFi":"u'no'","GoodForKids":"True"},"categories":["American(New)","Restaurants"],"hours":{"Tuesday":"17:0-21:0","Wednesday":"17:0-21:0","Thursday":"17:0-21:0","Friday":"17:0-22:0","Saturday":"17:0-22:0","Sunday":"17:0-21:0"}},{"business_id":"B3SYmXQ7Xtobk_XWJIdAnQ","name":"Golden Garden","address":"9 Highland Ave","city":"Malden","state":"MA","postal_code":"02148","latitude":42.4152903,"longitude":-71.0790026,"stars":3.5,"review_count":55,"is_open":1,"attributes":{"BikeParking":"True","RestaurantsTableService":"True","WiFi":"'free'","GoodForKids":"True","RestaurantsPriceRange2":"2","RestaurantsTakeOut":"True","RestaurantsAttire":"u'casual'","RestaurantsDelivery":"True","BusinessAcceptsCreditCards":"True","RestaurantsGoodForGroups":"True","RestaurantsReservations":"True","HasTV":"True","NoiseLevel":"u'average'"},"categories":["Seafood","Restaurants","Chinese","Barbeque"],"hours":{"Monday":"11:0-23:0","Tuesday":"11:0-23:0","Wednesday":"11:0-23:0","Thursday":"11:0-23:0","Friday":"11:0-23:0","Saturday":"11:0-23:0","Sunday":"11:0-23:0"}},{"business_id":"XMxgZsQnBZ6r02QR2kIcWQ","name":"The Fireplace","address":"1634 Beacon St","city":"Brookline","state":"MA","postal_code":"02445","latitude":42.3395119,"longitude":-71.1358857,"stars":3.5,"review_count":530,"is_open":0,"attributes":{"RestaurantsReservations":"True","RestaurantsGoodForGroups":"True","BYOBCorkage":"'no'","Alcohol":"'full_bar'","WiFi":"u'no'","Caters":"True","RestaurantsPriceRange2":"3","BusinessAcceptsCreditCards":"True","NoiseLevel":"u'average'","RestaurantsTakeOut":"True","RestaurantsAttire":"'casual'","BikeParking":"True","HasTV":"True","OutdoorSeating":"True","RestaurantsDelivery":"True"},"categories":["Caterers","Restaurants","EventPlanning&Services","American(New)"],"hours":{"Monday":"11:0-22:0","Tuesday":"11:0-22:0","Wednesday":"11:0-22:0","Thursday":"11:0-23:0","Friday":"11:0-23:0","Saturday":"11:0-23:0","Sunday":"11:0-22:0"}},{"business_id":"JDShHliENiJ_Cf-QybttSQ","name":"Garifuna Cafe","address":"143 Washington St","city":"Boston","state":"MA","postal_code":"02121","latitude":42.3044379,"longitude":-71.0796257,"stars":3.0,"review_count":6,"is_open":0,"attributes":{"RestaurantsDelivery":"True","BusinessAcceptsCreditCards":"True","NoiseLevel":"u'quiet'","RestaurantsTakeOut":"True"},"categories":["Spanish","Restaurants","Caribbean","LatinAmerican"],"hours":{"Wednesday":"10:0-19:0","Thursday":"10:0-19:0","Friday":"10:0-19:0","Saturday":"10:0-19:0","Sunday":"10:0-19:0"}},{"business_id":"qS_sydoMwEMuBU0ByOM-JA","name":"Schoolhouse Pizza","address":"3 School St","city":"Quincy","state":"MA","postal_code":"02169","latitude":42.2440289181,"longitude":-71.0035094762,"stars":3.5,"review_count":270,"is_open":1,"attributes":{"BusinessAcceptsCreditCards":"True","BYOBCorkage":"'no'","OutdoorSeating":"True","RestaurantsAttire":"u'casual'","GoodForKids":"True","RestaurantsDelivery":"True","RestaurantsGoodForGroups":"True","WiFi":"u'free'","NoiseLevel":"u'average'","RestaurantsTakeOut":"True","RestaurantsPriceRange2":"1","Caters":"True"},"categories":["Italian","Pizza","Food","Restaurants"],"hours":{"Monday":"11:0-21:0","Tuesday":"11:0-21:0","Wednesday":"11:0-21:0","Thursday":"11:0-21:0","Friday":"11:0-22:0","Saturday":"11:0-22:0","Sunday":"11:0-21:0"}},{"business_id":"WiKoxj5mNdFcyHd0SNIU0g","name":"3 Lucky Stars","address":"179 W Central St","city":"Natick","state":"MA","postal_code":"01760","latitude":42.2829494,"longitude":-71.3802236,"stars":2.5,"review_count":17,"is_open":0,"attributes":{"BusinessAcceptsCreditCards":"True","RestaurantsTakeOut":"True","RestaurantsDelivery":"True","GoodForKids":"True","HasTV":"True","RestaurantsGoodForGroups":"True","RestaurantsPriceRange2":"1","RestaurantsAttire":"u'casual'","NoiseLevel":"'quiet'","WiFi":"'no'","Alcohol":"'none'"},"categories":["Soup","Cantonese","Chinese","Restaurants","Seafood"],"hours":{"Monday":"11:30-22:30","Wednesday":"11:30-22:30","Thursday":"11:30-22:30","Friday":"11:30-23:30","Saturday":"11:30-23:30","Sunday":"12:30-22:30"}},{"business_id":"0_Gasj4t2pH5mNvYyBDPaQ","name":"Hamilton Restaurant & Bar","address":"1366 Beacon St","city":"Brookline","state":"MA","postal_code":"02446","latitude":42.341899,"longitude":-71.123507,"stars":3.5,"review_count":112,"is_open":1,"attributes":{"HasTV":"True","RestaurantsPriceRange2":"2","BusinessAcceptsCreditCards":"True","RestaurantsGoodForGroups":"True","RestaurantsReservations":"True","RestaurantsTakeOut":"True","RestaurantsDelivery":"True","OutdoorSeating":"True"},"categories":["Bars","Nightlife","Restaurants","Pubs","CocktailBars"],"hours":{"Wednesday":"16:0-21:0","Thursday":"16:0-21:0","Friday":"16:0-21:0","Saturday":"16:0-21:0","Sunday":"16:0-21:0"}},{"business_id":"z94sMXAeXXbEpfTZMifSKQ","name":"Andrea's Pizza Woburn","address":"418 Main St","city":"Woburn","state":"MA","postal_code":"01801","latitude":42.4805997,"longitude":-71.1515125,"stars":3.5,"review_count":32,"is_open":1,"attributes":{"RestaurantsPriceRange2":"1","GoodForKids":"True","HasTV":"True","RestaurantsTakeOut":"True","WiFi":"'no'","RestaurantsDelivery":"True","RestaurantsAttire":"u'casual'","BusinessAcceptsCreditCards":"True","RestaurantsGoodForGroups":"True","Caters":"True"},"categories":["Sandwiches","Food","Restaurants","Pizza","Wraps"],"hours":{"Tuesday":"11:0-21:0","Wednesday":"11:0-21:0","Thursday":"11:0-21:0","Friday":"11:0-21:0","Saturday":"11:15-21:0"}},{"business_id":"_0d408AYQPBJ0ywAaFBF3g","name":"Hopsters Brewing Company","address":"51 Sleeper St","city":"Boston","state":"MA","postal_code":"02210","latitude":42.3524963,"longitude":-71.0486161,"stars":3.0,"review_count":202,"is_open":0,"attributes":{"BikeParking":"True","BusinessAcceptsCreditCards":"True","RestaurantsGoodForGroups":"True","WiFi":"u'free'","RestaurantsPriceRange2":"2","RestaurantsAttire":"'casual'","RestaurantsTakeOut":"True","OutdoorSeating":"True","HasTV":"True","Smoking":"u'no'","RestaurantsReservations":"True","RestaurantsDelivery":"True","RestaurantsTableService":"True","NoiseLevel":"u'average'","WheelchairAccessible":"True","Alcohol":"u'full_bar'"},"categories":["Restaurants","American(New)","Bars","Food","Breweries","Nightlife","BeerBar"],"hours":{"Monday":"16:0-22:0","Tuesday":"16:0-22:0","Wednesday":"16:0-22:0","Thursday":"16:0-22:0","Friday":"16:0-22:0","Saturday":"11:0-22:0","Sunday":"11:0-22:0"}},{"business_id":"0S5rL_tj24ExYV9SRHROpA","name":"D'Caribe Restaurant","address":"61 Franklin St","city":"Lynn","state":"MA","postal_code":"01902","latitude":42.465952,"longitude":-70.9549934,"stars":3.0,"review_count":8,"is_open":1,"attributes":{"Caters":"True","WheelchairAccessible":"True","WiFi":"u'free'","RestaurantsTableService":"True","RestaurantsDelivery":"True","BusinessAcceptsCreditCards":"True","RestaurantsTakeOut":"True","BikeParking":"True","HasTV":"True"},"categories":["Caribbean","EventPlanning&Services","Restaurants","Diners","Breakfast&Brunch","LatinAmerican","Party&EventPlanning","Spanish","Food","Dominican","Coffee&Tea"],"hours":{"Monday":"7:0-22:0","Tuesday":"7:0-22:0","Wednesday":"7:0-22:0","Thursday":"7:0-23:0","Friday":"7:0-23:0","Saturday":"7:0-23:0","Sunday":"7:0-23:0"}},{"business_id":"7dtBcWPhW2WP7b0bjNPrAQ","name":"Matilda's Sandwich Shoppe","address":"1 Crawford St","city":"Watertown","state":"MA","postal_code":"02472","latitude":42.3679175,"longitude":-71.1553242,"stars":4.5,"review_count":78,"is_open":1,"attributes":{"RestaurantsTakeOut":"True","RestaurantsPriceRange2":"1","Caters":"True","RestaurantsDelivery":"True","GoodForKids":"True","BusinessAcceptsCreditCards":"True","Alcohol":"'none'","BYOBCorkage":"'yes_free'","RestaurantsAttire":"'casual'","NoiseLevel":"u'average'","BikeParking":"True","HasTV":"True"},"categories":["Breakfast&Brunch","EventPlanning&Services","Sandwiches","Salad","Restaurants","Caterers","Soup","Delis"],"hours":{"Monday":"11:0-14:0","Tuesday":"11:0-14:0","Wednesday":"11:0-14:0","Thursday":"11:0-14:0","Friday":"11:0-14:0"}},{"business_id":"kb7484P1s9eQx39xADFJ-A","name":"Rani Indian Bistro","address":"1353 Beacon St","city":"Brookline","state":"MA","postal_code":"02446","latitude":42.3414743,"longitude":-71.1225231,"stars":3.0,"review_count":233,"is_open":0,"attributes":{"RestaurantsTakeOut":"True","Corkage":"True","GoodForKids":"True","BusinessAcceptsCreditCards":"True","RestaurantsPriceRange2":"2","WiFi":"u'free'","BikeParking":"True","RestaurantsReservations":"True","BYOBCorkage":"'no'","NoiseLevel":"u'average'","RestaurantsGoodForGroups":"True","RestaurantsAttire":"'casual'","RestaurantsDelivery":"True","Alcohol":"'full_bar'","WheelchairAccessible":"True","RestaurantsTableService":"True","Caters":"True"},"categories":["Indian","Vegan","Pakistani","Restaurants","Vegetarian"],"hours":{"Monday":"17:0-22:0","Tuesday":"17:0-22:0","Wednesday":"17:0-22:0","Thursday":"17:0-22:0","Friday":"17:0-22:30","Saturday":"17:0-22:30","Sunday":"17:0-22:0"}},{"business_id":"dwLF6jEC5UB8hPa0r93Fxg","name":"Capital One Caf\u00e9","address":"425 Revolution Dr","city":"Somerville","state":"MA","postal_code":"02145","latitude":42.3919606,"longitude":-71.0782509,"stars":4.5,"review_count":20,"is_open":1,"attributes":{"RestaurantsTakeOut":"True","WiFi":"u'free'","OutdoorSeating":"True","BusinessAcceptsCreditCards":"True"},"categories":["Cafes","Banks&CreditUnions","Coffee&Tea","Restaurants","Food","FinancialServices"],"hours":{"Tuesday":"6:30-19:0","Wednesday":"6:30-19:0","Thursday":"6:30-19:0","Friday":"6:30-19:0","Saturday":"8:0-19:0","Sunday":"9:0-17:0"}},{"business_id":"ieIMK7tAq9GuqQRzqM-xZA","name":"McDonald's","address":"180 Endicott St","city":"Danvers","state":"MA","postal_code":"01923","latitude":42.547904,"longitude":-70.941543,"stars":2.5,"review_count":20,"is_open":1,"attributes":{"BusinessAcceptsCreditCards":"True","RestaurantsGoodForGroups":"True","NoiseLevel":"u'loud'","HasTV":"True","RestaurantsTakeOut":"True","RestaurantsPriceRange2":"1","WiFi":"'free'","DriveThru":"True","GoodForKids":"True","RestaurantsDelivery":"True","RestaurantsAttire":"'casual'","OutdoorSeating":"True"},"categories":["Burgers","Coffee&Tea","Restaurants","Food","FastFood"],"hours":{"Monday":"6:0-23:0","Tuesday":"6:0-23:0","Wednesday":"6:0-23:0","Thursday":"6:0-23:0","Friday":"6:0-23:0","Saturday":"6:0-23:0","Sunday":"6:0-23:0"}},{"business_id":"QTcAzZL07l_8n_E2GUsQ0w","name":"McGolf Cafe & Creamery","address":"150 Bridge St","city":"Dedham","state":"MA","postal_code":"02026","latitude":42.2665992934,"longitude":-71.1761619035,"stars":3.5,"review_count":13,"is_open":1,"attributes":{"BusinessAcceptsCreditCards":"True","WiFi":"u'no'","OutdoorSeating":"True","HasTV":"True","RestaurantsGoodForGroups":"True","RestaurantsPriceRange2":"1","RestaurantsTakeOut":"True","GoodForKids":"True"},"categories":["Restaurants","IceCream&FrozenYogurt","Breakfast&Brunch","American(Traditional)","Food"],"hours":{"Monday":"9:0-14:30","Tuesday":"9:0-14:30","Wednesday":"9:0-14:30","Thursday":"9:0-14:30","Friday":"9:0-14:30","Saturday":"9:0-14:30","Sunday":"9:0-14:30"}},{"business_id":"AMOuvUEINcD8xomMSReFog","name":"Blue Fuji","address":"38 Salem St","city":"Medford","state":"MA","postal_code":"02155","latitude":42.4185381268,"longitude":-71.108225584,"stars":3.5,"review_count":491,"is_open":1,"attributes":{"RestaurantsReservations":"True","RestaurantsPriceRange2":"2","RestaurantsTakeOut":"True","RestaurantsDelivery":"True","RestaurantsGoodForGroups":"True","Caters":"True","BusinessAcceptsCreditCards":"True","WiFi":"u'free'","HasTV":"True","NoiseLevel":"u'quiet'","GoodForKids":"True","Alcohol":"u'beer_and_wine'","BikeParking":"True","RestaurantsAttire":"u'casual'"},"categories":["Japanese","AsianFusion","Chinese","SushiBars","Restaurants"],"hours":{"Monday":"11:0-22:0","Tuesday":"11:0-22:0","Wednesday":"11:0-22:0","Thursday":"11:0-22:0","Friday":"11:0-23:0","Saturday":"11:0-23:0","Sunday":"11:0-22:0"}},{"business_id":"5UthFjEP8UhRKDtbNjIhGA","name":"Tasos Euro Cafe","address":"125 Access Rd","city":"Norwood","state":"MA","postal_code":"02062","latitude":42.187468,"longitude":-71.1770178,"stars":3.5,"review_count":108,"is_open":1,"attributes":{"WiFi":"u'no'","RestaurantsReservations":"True","NoiseLevel":"u'average'","BusinessAcceptsCreditCards":"True","RestaurantsGoodForGroups":"True","RestaurantsPriceRange2":"2","Caters":"True","RestaurantsAttire":"u'casual'","RestaurantsTakeOut":"True","HasTV":"True","Alcohol":"u'beer_and_wine'","GoodForKids":"True","RestaurantsTableService":"True","OutdoorSeating":"True","BikeParking":"True","WheelchairAccessible":"True"},"categories":["Mediterranean","Pizza","Greek","Restaurants","Seafood"],"hours":{"Monday":"11:0-20:0","Tuesday":"11:0-20:0","Wednesday":"11:0-20:0","Thursday":"11:0-21:0","Friday":"11:0-21:0","Saturday":"11:0-21:0"}},{"business_id":"ki42ILFo3Mw6J3B_x4otUQ","name":"Rooster Thai and Convenience","address":"1117 Main St, Ste 2","city":"Wakefield","state":"MA","postal_code":"01880","latitude":42.4781969,"longitude":-71.0632479,"stars":5.0,"review_count":12,"is_open":0,"attributes":{"RestaurantsTakeOut":"True","RestaurantsReservations":"True","RestaurantsAttire":"u'casual'","NoiseLevel":"u'quiet'","GoodForKids":"True","BikeParking":"True","RestaurantsPriceRange2":"2","Caters":"True","WheelchairAccessible":"True","BusinessAcceptsCreditCards":"True","WiFi":"u'free'","RestaurantsDelivery":"True"},"categories":["Fashion","Shopping","ConvenienceStores","Restaurants","Thai","Food","Accessories"],"hours":{"Monday":"7:0-21:0","Tuesday":"7:0-21:0","Wednesday":"7:0-21:0","Thursday":"7:0-21:0","Friday":"7:0-21:0","Saturday":"7:0-21:0","Sunday":"7:0-21:0"}},{"business_id":"sZiUCvGIfkmeucb_JwaZvQ","name":"Inbound Pizza & Restaurant","address":"1232 Commonwealth Ave","city":"Allston","state":"MA","postal_code":"02134","latitude":42.3498800483,"longitude":-71.1310982114,"stars":3.0,"review_count":188,"is_open":1,"attributes":{"Caters":"True","RestaurantsTakeOut":"True","GoodForKids":"True","HasTV":"True","RestaurantsGoodForGroups":"True","RestaurantsPriceRange2":"1","BusinessAcceptsCreditCards":"True","RestaurantsAttire":"'casual'","RestaurantsDelivery":"True","Alcohol":"'none'","BikeParking":"True","WiFi":"u'free'","NoiseLevel":"u'quiet'","WheelchairAccessible":"True"},"categories":["Salad","Pizza","Restaurants","Sandwiches"],"hours":{"Monday":"12:0-21:0","Tuesday":"12:0-21:0","Wednesday":"12:0-21:0","Thursday":"12:0-21:0","Friday":"12:0-21:0","Saturday":"12:0-21:0","Sunday":"12:0-21:0"}},{"business_id":"6uuWg3RYUYzrLePphT3PQw","name":"TGI Fridays","address":"1626 Tremont St","city":"Boston","state":"MA","postal_code":"02120","latitude":42.3334066,"longitude":-71.1042463,"stars":2.0,"review_count":228,"is_open":1,"attributes":{"RestaurantsTakeOut":"True","RestaurantsPriceRange2":"2","WiFi":"'free'","BYOBCorkage":"'no'","OutdoorSeating":"True","BusinessAcceptsCreditCards":"True","RestaurantsGoodForGroups":"True","GoodForKids":"True","NoiseLevel":"u'loud'","HasTV":"True","RestaurantsReservations":"True","RestaurantsTableService":"True","Alcohol":"'full_bar'","BikeParking":"True","RestaurantsAttire":"'casual'","RestaurantsDelivery":"True"},"categories":["American(New)","Nightlife","Restaurants","Bars","American(Traditional)"],"hours":{"Monday":"11:0-0:30","Tuesday":"11:0-0:30","Wednesday":"11:0-0:30","Thursday":"10:30-0:30","Friday":"10:30-0:30","Saturday":"11:0-0:30","Sunday":"11:0-0:30"}},{"business_id":"zqfbHraCjhS5ZOT70Svn1A","name":"The Similans","address":"145 1st St","city":"Cambridge","state":"MA","postal_code":"02142","latitude":42.366363,"longitude":-71.07809,"stars":4.0,"review_count":526,"is_open":1,"attributes":{"BusinessAcceptsCreditCards":"True","RestaurantsDelivery":"True","RestaurantsPriceRange2":"2","Corkage":"True","BikeParking":"True","RestaurantsReservations":"True","Alcohol":"'full_bar'","RestaurantsGoodForGroups":"True","BYOBCorkage":"'no'","RestaurantsAttire":"'casual'","WiFi":"u'no'","NoiseLevel":"u'average'","Caters":"True","HasTV":"True","RestaurantsTableService":"True","WheelchairAccessible":"True","GoodForKids":"True","RestaurantsTakeOut":"True"},"categories":["Restaurants","Thai"],"hours":{"Monday":"16:0-21:30","Tuesday":"16:0-21:30","Wednesday":"16:0-21:30","Thursday":"16:0-21:30","Friday":"16:0-21:30","Saturday":"16:0-21:30","Sunday":"16:0-21:0"}},{"business_id":"1_bIwtYU3RYuPooHpAIQZg","name":"Manoa Poke Shop","address":"300 Beacon St","city":"Somerville","state":"MA","postal_code":"02143","latitude":42.383592,"longitude":-71.11314,"stars":4.5,"review_count":342,"is_open":1,"attributes":{"WiFi":"u'free'","BikeParking":"True","RestaurantsTakeOut":"True","BusinessAcceptsCreditCards":"True","Caters":"True","NoiseLevel":"u'average'","RestaurantsPriceRange2":"2","RestaurantsAttire":"'casual'","GoodForKids":"True"},"categories":["Hawaiian","Seafood","Poke","Food","Restaurants"],"hours":{"Monday":"17:0-21:30","Wednesday":"11:30-20:0","Friday":"17:0-20:0","Saturday":"12:0-17:0","Sunday":"12:0-16:0"}},{"business_id":"Jz4pheZ6m8eYV4EYzb_jeQ","name":"Stix Restaurant & Lounge","address":"35 Stanhope St","city":"Boston","state":"MA","postal_code":"02116","latitude":42.3485169,"longitude":-71.0731156,"stars":3.0,"review_count":79,"is_open":0,"attributes":{"BusinessAcceptsCreditCards":"True","RestaurantsReservations":"True","Alcohol":"'full_bar'","RestaurantsAttire":"'casual'","OutdoorSeating":"True","RestaurantsPriceRange2":"2","RestaurantsDelivery":"True","BYOBCorkage":"'no'","RestaurantsGoodForGroups":"True"},"categories":["Food","Restaurants","American(New)","AsianFusion"],"hours":{"Monday":"17:30-1:0","Tuesday":"17:30-1:0","Wednesday":"17:30-1:0","Thursday":"17:30-1:0","Friday":"17:30-2:0","Saturday":"17:30-2:0","Sunday":"22:0-2:0"}},{"business_id":"e3kA4VVl9DfgvNU_P5a-zg","name":"Palio's Italian Grill","address":"94 Hartwell Ave","city":"Lexington","state":"MA","postal_code":"02421","latitude":42.465927,"longitude":-71.260867,"stars":2.5,"review_count":14,"is_open":0,"attributes":{"BusinessAcceptsCreditCards":"True","RestaurantsGoodForGroups":"True","RestaurantsReservations":"True","RestaurantsAttire":"u'casual'","RestaurantsPriceRange2":"2","RestaurantsTakeOut":"True","Alcohol":"u'full_bar'"},"categories":["Restaurants","Italian"],"hours":{"Monday":"11:30-21:30","Tuesday":"11:30-21:30","Wednesday":"11:30-21:30","Thursday":"11:30-21:30","Friday":"11:30-22:0","Saturday":"16:0-22:0"}},{"business_id":"Df2QJe-w68JM0fR9rFfPhA","name":"Moldova Restaurant","address":"344 Watertown St","city":"Newton","state":"MA","postal_code":"02458","latitude":42.360641,"longitude":-71.2002241,"stars":4.5,"review_count":176,"is_open":1,"attributes":{"RestaurantsReservations":"True","WheelchairAccessible":"True","RestaurantsDelivery":"True","WiFi":"u'free'","GoodForKids":"True","RestaurantsAttire":"u'casual'","RestaurantsTableService":"True","RestaurantsTakeOut":"True","RestaurantsGoodForGroups":"True","OutdoorSeating":"True","BusinessAcceptsCreditCards":"True","HasTV":"True","NoiseLevel":"u'average'","Alcohol":"u'full_bar'","RestaurantsPriceRange2":"2","Caters":"True"},"categories":["Coffee&Tea","Food","ModernEuropean","Restaurants","SpecialtyFood","ComfortFood"],"hours":{"Tuesday":"11:0-21:0","Wednesday":"11:0-21:0","Thursday":"11:0-21:0","Friday":"11:0-21:0","Saturday":"11:0-21:0","Sunday":"11:0-21:0"}},{"business_id":"mIZTif2mj2-CozNOOTFFpg","name":"Sound Bites Cafe","address":"704 Broadway","city":"Somerville","state":"MA","postal_code":"02144","latitude":42.3997696,"longitude":-71.1124275,"stars":4.0,"review_count":1100,"is_open":1,"attributes":{"Alcohol":"'full_bar'","Corkage":"True","RestaurantsTakeOut":"True","BusinessAcceptsCreditCards":"True","BYOBCorkage":"'no'","RestaurantsDelivery":"True","GoodForKids":"True","RestaurantsAttire":"'casual'","Caters":"True","WiFi":"u'free'","NoiseLevel":"u'average'","HasTV":"True","BikeParking":"True","RestaurantsPriceRange2":"2","OutdoorSeating":"True","RestaurantsGoodForGroups":"True"},"categories":["Restaurants","Diners","Breakfast&Brunch","Mediterranean","MiddleEastern"],"hours":{"Monday":"6:30-15:0","Tuesday":"6:30-15:0","Wednesday":"6:30-19:0","Thursday":"6:30-19:0","Friday":"6:30-19:0","Saturday":"6:30-19:0","Sunday":"6:30-15:0"}},{"business_id":"jHg7ZDzcxV2mYyf7XThk9w","name":"King Crab Juicy Seafood","address":"180 Main St","city":"Saugus","state":"MA","postal_code":"01906","latitude":42.4635407,"longitude":-71.0260975,"stars":3.5,"review_count":15,"is_open":1,"attributes":{"WheelchairAccessible":"True","RestaurantsDelivery":"True","WiFi":"u'no'","RestaurantsTableService":"True","RestaurantsTakeOut":"True","HasTV":"True","BusinessAcceptsCreditCards":"True"},"categories":["Southern","Restaurants","Seafood","Cajun\/Creole"],"hours":{"Tuesday":"11:30-22:0","Wednesday":"11:30-22:0","Thursday":"11:30-22:0","Friday":"11:30-23:0","Saturday":"11:30-23:0","Sunday":"11:30-22:0"}},{"business_id":"yHuV7fdSJT96ChiWpDrU-Q","name":"Dig","address":"277 Washington St","city":"Boston","state":"MA","postal_code":"02108","latitude":42.3576,"longitude":-71.05839,"stars":4.0,"review_count":141,"is_open":1,"attributes":{"WiFi":"u'free'","RestaurantsAttire":"u'casual'","RestaurantsDelivery":"True","BikeParking":"True","NoiseLevel":"u'average'","RestaurantsTakeOut":"True","Caters":"True","RestaurantsPriceRange2":"2","BusinessAcceptsCreditCards":"True","GoodForKids":"True"},"categories":["American(New)","Restaurants","American(Traditional)"],"hours":{"Tuesday":"10:30-17:0","Wednesday":"10:30-21:0","Thursday":"10:30-21:0","Friday":"10:30-21:0","Saturday":"11:0-21:0","Sunday":"11:0-21:0"}},{"business_id":"tN08NZTMnyX_yT89uVN2_w","name":"Matt Murphy's Pub","address":"14 Harvard St","city":"Brookline","state":"MA","postal_code":"02445","latitude":42.333667867,"longitude":-71.119049,"stars":3.5,"review_count":360,"is_open":1,"attributes":{"Alcohol":"'full_bar'","RestaurantsPriceRange2":"2","WiFi":"u'no'","BYOBCorkage":"'no'","RestaurantsAttire":"'casual'","RestaurantsTakeOut":"True","BikeParking":"True","NoiseLevel":"u'average'","WheelchairAccessible":"True"},"categories":["Jazz&Blues","Restaurants","Nightlife","MusicVenues","Irish","Bars","Arts&Entertainment","IrishPub","Pubs"],"hours":{"Monday":"11:30-23:0","Tuesday":"11:30-23:0","Wednesday":"11:30-23:0","Thursday":"11:30-23:0","Friday":"11:30-23:0","Saturday":"11:30-23:0","Sunday":"11:0-23:0"}},{"business_id":"XCPxbHLo0kmWSQv3ZqJvBg","name":"Pazza on Porter","address":"107 Porter St","city":"Boston","state":"MA","postal_code":"02128","latitude":42.3729674,"longitude":-71.0360569,"stars":4.0,"review_count":95,"is_open":1,"attributes":{"OutdoorSeating":"True","WiFi":"u'free'","RestaurantsTakeOut":"True","BikeParking":"True","RestaurantsGoodForGroups":"True","RestaurantsPriceRange2":"2","Caters":"True","RestaurantsDelivery":"True","BusinessAcceptsCreditCards":"True","RestaurantsTableService":"True","WheelchairAccessible":"True","Alcohol":"u'full_bar'","RestaurantsReservations":"True","Smoking":"u'no'","HasTV":"True","Corkage":"True","RestaurantsAttire":"u'casual'"},"categories":["Restaurants","Pizza","Nightlife","Lounges","Bars","Italian"],"hours":{"Monday":"16:0-1:0","Tuesday":"16:0-1:0","Wednesday":"16:0-1:0","Thursday":"16:0-1:0","Friday":"16:0-1:0","Saturday":"11:0-1:0","Sunday":"11:0-1:0"}},{"business_id":"S2RKI9wDmI4Y5KOM1fgRzQ","name":"River Grille Restaurant & Cafe","address":"1263 River St","city":"Hyde Park","state":"MA","postal_code":"02136","latitude":42.2558889,"longitude":-71.1237189,"stars":3.0,"review_count":53,"is_open":1,"attributes":{"RestaurantsAttire":"u'casual'","RestaurantsGoodForGroups":"True","NoiseLevel":"'average'","GoodForKids":"True","RestaurantsTakeOut":"True","RestaurantsDelivery":"True","BusinessAcceptsCreditCards":"True","BikeParking":"True","WiFi":"u'free'","RestaurantsPriceRange2":"2","HasTV":"True","Caters":"True"},"categories":["Italian","Pizza","Seafood","Restaurants","American(Traditional)"],"hours":{"Monday":"11:0-22:0","Tuesday":"11:0-22:0","Wednesday":"11:0-22:0","Thursday":"11:0-22:0","Friday":"11:0-22:0","Saturday":"11:0-22:0","Sunday":"12:0-20:0"}},{"business_id":"y5iRrweISUHMnATpBGr6uQ","name":"JMP Fine Indian Cuisine","address":"1095 Commonwealth Ave, Ste 212","city":"Boston","state":"MA","postal_code":"02215","latitude":42.352572,"longitude":-71.1254485,"stars":4.0,"review_count":159,"is_open":1,"attributes":{"RestaurantsGoodForGroups":"True","BusinessAcceptsCreditCards":"True","BikeParking":"True","RestaurantsTakeOut":"True","RestaurantsPriceRange2":"1","GoodForKids":"True","NoiseLevel":"u'loud'","WiFi":"u'no'","RestaurantsAttire":"'casual'","Alcohol":"'none'","Caters":"True","HasTV":"True","RestaurantsDelivery":"True"},"categories":["Restaurants","Pakistani","Food","FoodDeliveryServices","Indian","Halal"],"hours":{"Monday":"12:0-21:0","Wednesday":"12:0-21:0","Thursday":"12:0-21:0","Friday":"14:30-21:0","Saturday":"12:0-21:0","Sunday":"12:0-21:0"}},{"business_id":"uOWvlCZ4COmTa76rj68QzA","name":"Peony Chinese Gourmet","address":"654 Washington St","city":"Norwood","state":"MA","postal_code":"02062","latitude":42.1933313,"longitude":-71.2012873,"stars":3.0,"review_count":25,"is_open":0,"attributes":{"WiFi":"u'no'","RestaurantsAttire":"u'casual'","RestaurantsDelivery":"True","NoiseLevel":"u'quiet'","RestaurantsTakeOut":"True","BusinessAcceptsCreditCards":"True","RestaurantsGoodForGroups":"True","RestaurantsReservations":"True","RestaurantsPriceRange2":"2","GoodForKids":"True"},"categories":["Restaurants","Chinese"],"hours":{"Tuesday":"11:30-21:30","Wednesday":"11:30-21:30","Thursday":"11:30-21:30","Friday":"11:30-22:0","Saturday":"11:30-22:0","Sunday":"23:30-21:30"}},{"business_id":"UXb5pTNPf31BpJ2oiDZBXQ","name":"Jacob Wirth","address":"31 Stuart St, Ste 37","city":"Boston","state":"MA","postal_code":"02116","latitude":42.3511824025,"longitude":-71.063838868,"stars":3.5,"review_count":889,"is_open":0,"attributes":{"NoiseLevel":"u'loud'","RestaurantsReservations":"True","BYOBCorkage":"'no'","OutdoorSeating":"True","RestaurantsTakeOut":"True","Caters":"True","RestaurantsAttire":"'casual'","HasTV":"True","Alcohol":"'full_bar'","BusinessAcceptsCreditCards":"True","RestaurantsGoodForGroups":"True","WiFi":"u'free'","RestaurantsPriceRange2":"2"},"categories":["Burgers","Tapas\/SmallPlates","Pubs","American(Traditional)","Restaurants","Bars","PianoBars","Nightlife","German"],"hours":{"Tuesday":"11:30-22:0","Wednesday":"11:30-22:0","Thursday":"11:30-0:0","Friday":"11:30-1:0","Saturday":"11:30-1:0","Sunday":"11:30-19:0"}},{"business_id":"cFfWVZz8NUyE-ZhE_IaSWA","name":"David's Pizza","address":"218 W Squantum St","city":"Quincy","state":"MA","postal_code":"02171","latitude":42.2697808,"longitude":-71.0337625,"stars":3.5,"review_count":55,"is_open":1,"attributes":{"RestaurantsPriceRange2":"2","HasTV":"True","WiFi":"u'free'","RestaurantsGoodForGroups":"True","NoiseLevel":"u'average'","RestaurantsTakeOut":"True","BusinessAcceptsCreditCards":"True","RestaurantsAttire":"u'casual'","GoodForKids":"True","OutdoorSeating":"True","RestaurantsDelivery":"True","BikeParking":"True","Caters":"True"},"categories":["Restaurants","Pizza","IceCream&FrozenYogurt","Gluten-Free","Food"],"hours":{"Monday":"11:0-22:30","Tuesday":"11:0-22:30","Wednesday":"11:0-22:30","Thursday":"11:0-22:30","Friday":"11:0-22:30","Saturday":"11:0-22:30","Sunday":"11:0-21:30"}},{"business_id":"n_E8S4o9qywljKvzsADoRQ","name":"BEERWORKS No. 2 Salem","address":"278 Derby St","city":"Salem","state":"MA","postal_code":"01970","latitude":42.5203596,"longitude":-70.8909863,"stars":3.0,"review_count":480,"is_open":1,"attributes":{"RestaurantsPriceRange2":"2","BusinessAcceptsCreditCards":"True","RestaurantsAttire":"u'casual'","RestaurantsGoodForGroups":"True","WiFi":"u'free'","NoiseLevel":"u'average'","RestaurantsTakeOut":"True","OutdoorSeating":"True","RestaurantsReservations":"True","BikeParking":"True","HasTV":"True","Alcohol":"u'full_bar'","GoodForKids":"True"},"categories":["Restaurants","Burgers","Food","Nightlife","BeerBar","American(New)","American(Traditional)","Bars","Breweries","SportsBars","Brewpubs"],"hours":{"Wednesday":"16:0-23:0","Thursday":"16:0-23:0","Friday":"12:0-0:0","Saturday":"12:0-0:0","Sunday":"12:0-22:0"}},{"business_id":"kiLlyo7p0AHLxzAXmGh9jg","name":"My Happy Hunan Kitchen \u7b77\u4e50\u6e58\u805a","address":"1926 Beacon St","city":"Brighton","state":"MA","postal_code":"02135","latitude":42.336447,"longitude":-71.1497486,"stars":4.5,"review_count":25,"is_open":1,"attributes":{"RestaurantsDelivery":"True","RestaurantsTableService":"True","WiFi":"u'free'","Caters":"True","BusinessAcceptsCreditCards":"True","HasTV":"True","RestaurantsTakeOut":"True","RestaurantsReservations":"True"},"categories":["Restaurants","Chinese"],"hours":{"Monday":"11:30-21:30","Tuesday":"11:30-21:30","Wednesday":"11:30-21:30","Thursday":"11:30-21:30","Friday":"11:30-22:0","Saturday":"11:30-22:0","Sunday":"11:30-21:0"}},{"business_id":"znkU8_QJ4Dksd8XUVjXBcg","name":"Fuku Boston Seaport","address":"43 Northern Ave","city":"Boston","state":"MA","postal_code":"02210","latitude":42.353272,"longitude":-71.046872,"stars":3.5,"review_count":182,"is_open":0,"attributes":{"WheelchairAccessible":"True","WiFi":"u'free'","BusinessAcceptsCreditCards":"True","OutdoorSeating":"True","RestaurantsPriceRange2":"2","RestaurantsTakeOut":"True","NoiseLevel":"u'average'","RestaurantsAttire":"u'casual'","HasTV":"True","GoodForKids":"True","RestaurantsGoodForGroups":"True"},"categories":["Restaurants","ChickenShop"],"hours":{"Monday":"11:0-20:0","Tuesday":"11:0-20:0","Wednesday":"11:0-20:0","Thursday":"11:0-21:0","Friday":"11:0-21:0","Saturday":"11:0-21:0","Sunday":"11:0-20:0"}},{"business_id":"um4x6dIkv8w2a4e0VkRNmA","name":"Rocco's Cucina & Bar","address":"450 Commercial St","city":"Boston","state":"MA","postal_code":"02109","latitude":42.36738,"longitude":-71.0534107325,"stars":3.5,"review_count":164,"is_open":1,"attributes":{"RestaurantsTakeOut":"True","WiFi":"u'free'","RestaurantsGoodForGroups":"True","BusinessAcceptsCreditCards":"True","Alcohol":"u'full_bar'","NoiseLevel":"u'average'","Caters":"True","OutdoorSeating":"True","RestaurantsPriceRange2":"2","RestaurantsDelivery":"True","RestaurantsAttire":"u'casual'","RestaurantsTableService":"True","HasTV":"True","RestaurantsReservations":"True"},"categories":["Beer","Wine&Spirits","Italian","American(Traditional)","Cafes","SportsBars","Breakfast&Brunch","Restaurants","Burgers","Wraps","Nightlife","FoodDeliveryServices","Pizza","Bars","Food"],"hours":{"Monday":"14:30-1:30","Tuesday":"16:0-22:0","Wednesday":"16:0-22:0","Thursday":"16:0-22:0","Friday":"16:0-23:0","Saturday":"16:0-23:0","Sunday":"16:0-22:0"}},{"business_id":"wErvHalgCs_HzuQXSYaZQA","name":"Big Bear Cafe & Espresso Bar","address":"3 Eastern Ave","city":"Dedham","state":"MA","postal_code":"02026","latitude":42.2478759,"longitude":-71.172749,"stars":4.5,"review_count":125,"is_open":1,"attributes":{"WiFi":"u'free'","NoiseLevel":"u'average'","RestaurantsPriceRange2":"1","OutdoorSeating":"True","BusinessAcceptsCreditCards":"True","RestaurantsAttire":"u'casual'","BikeParking":"True","GoodForKids":"True","WheelchairAccessible":"True","HasTV":"True"},"categories":["Restaurants","Breakfast&Brunch","Food","Cafes","Coffee&Tea"],"hours":{"Monday":"7:0-18:0","Tuesday":"7:0-18:0","Wednesday":"7:0-18:0","Thursday":"7:0-18:0","Friday":"7:0-18:0","Saturday":"7:0-18:0","Sunday":"7:0-18:0"}},{"business_id":"sca7tyVH-Ctbk67zMRdGmg","name":"Eggs & Thai Caf\u00e9","address":"2 Kings Ct","city":"Dedham","state":"MA","postal_code":"02026","latitude":42.2485172,"longitude":-71.1751548,"stars":4.0,"review_count":116,"is_open":1,"attributes":{"RestaurantsTableService":"True","RestaurantsAttire":"'casual'","BikeParking":"True","RestaurantsPriceRange2":"2","GoodForKids":"True","BusinessAcceptsCreditCards":"True","RestaurantsTakeOut":"True","NoiseLevel":"u'quiet'","WiFi":"'no'","RestaurantsGoodForGroups":"True","HasTV":"True","Caters":"True","RestaurantsDelivery":"True"},"categories":["Food","Desserts","Restaurants","Breakfast&Brunch","Thai"],"hours":{"Tuesday":"11:0-21:0","Wednesday":"11:0-21:0","Thursday":"11:0-21:0","Friday":"11:0-21:30","Saturday":"11:0-21:30","Sunday":"11:0-21:0"}},{"business_id":"nS8uRoVeqe20VsDDH59jHQ","name":"Boston Foodie Tours","address":"","city":"Boston","state":"MA","postal_code":"02114","latitude":42.3652917,"longitude":-71.0646337,"stars":5.0,"review_count":67,"is_open":1,"attributes":{"RestaurantsPriceRange2":"2","BusinessAcceptsCreditCards":"True"},"categories":["HistoricalTours","WalkingTours","Restaurants","Tours","Hotels&Travel","Food","FoodTours"],"hours":{"Monday":"9:0-17:0","Tuesday":"9:0-17:0","Wednesday":"9:0-17:0","Thursday":"9:0-17:0","Friday":"9:0-17:0"}},{"business_id":"AUi0btdCgk5izXYfKeWxSA","name":"Brothers Deli & Restaurant","address":"283 Derby St","city":"Salem","state":"MA","postal_code":"01970","latitude":42.519863,"longitude":-70.890834,"stars":2.5,"review_count":39,"is_open":0,"attributes":{"RestaurantsReservations":"True","BikeParking":"True","RestaurantsGoodForGroups":"True","RestaurantsAttire":"'casual'","GoodForKids":"True","Caters":"True","WiFi":"u'free'","NoiseLevel":"u'average'","RestaurantsTakeOut":"True","HasTV":"True","RestaurantsDelivery":"True","RestaurantsPriceRange2":"1","BusinessAcceptsCreditCards":"True","BYOBCorkage":"'yes_free'"},"categories":["Restaurants","Breakfast&Brunch","Food","American(Traditional)","Delis"],"hours":{"Monday":"6:0-20:30","Tuesday":"6:0-20:30","Wednesday":"6:0-20:30","Thursday":"6:0-20:30","Friday":"6:0-20:30","Saturday":"6:0-20:30","Sunday":"6:0-19:30"}},{"business_id":"yzdSWz86E1LF1172i3JOjA","name":"Olecito","address":"700 Commonwealth Ave","city":"Boston","state":"MA","postal_code":"02215","latitude":42.349461,"longitude":-71.1038616,"stars":2.5,"review_count":25,"is_open":0,"attributes":{"RestaurantsPriceRange2":"1","RestaurantsTakeOut":"True","BusinessAcceptsCreditCards":"True","WiFi":"u'no'","NoiseLevel":"u'average'","RestaurantsAttire":"u'casual'"},"categories":["Food","Restaurants","Mexican","Tex-Mex"],"hours":{"Monday":"11:0-20:0","Tuesday":"11:0-20:0","Wednesday":"11:0-20:0","Thursday":"11:0-20:0","Friday":"11:0-20:0","Saturday":"11:0-20:0","Sunday":"11:0-20:0"}},{"business_id":"QMJ0uaY73v6OX2Wr5emEwg","name":"Dudley Cafe","address":"15 Warren St","city":"Roxbury","state":"MA","postal_code":"02119","latitude":42.3300076,"longitude":-71.0834643,"stars":4.0,"review_count":68,"is_open":1,"attributes":{"RestaurantsAttire":"u'casual'","RestaurantsTakeOut":"True","WiFi":"u'free'","RestaurantsGoodForGroups":"True","Caters":"True","WheelchairAccessible":"True","NoiseLevel":"u'average'","RestaurantsDelivery":"True","OutdoorSeating":"True","Alcohol":"u'beer_and_wine'","BusinessAcceptsCreditCards":"True","RestaurantsPriceRange2":"2","GoodForKids":"True"},"categories":["Breakfast&Brunch","Coffee&Tea","Bakeries","Restaurants","Sandwiches","Cafes","Food"],"hours":{"Tuesday":"9:0-15:0","Wednesday":"7:0-17:0","Thursday":"7:0-17:0","Friday":"7:0-17:0","Saturday":"9:0-15:0"}},{"business_id":"WoI1IisL_AgmWdiJLRb-Zw","name":"Democracy Brewing","address":"35 Temple Pl","city":"Boston","state":"MA","postal_code":"02111","latitude":42.3550875,"longitude":-71.0621498,"stars":4.0,"review_count":216,"is_open":1,"attributes":{"RestaurantsPriceRange2":"2","RestaurantsAttire":"u'casual'","RestaurantsTakeOut":"True","RestaurantsGoodForGroups":"True","NoiseLevel":"u'average'","RestaurantsTableService":"True","HappyHour":"True","BusinessAcceptsCreditCards":"True","WheelchairAccessible":"True","WiFi":"u'free'","HasTV":"True","Alcohol":"u'beer_and_wine'","RestaurantsReservations":"True"},"categories":["Restaurants","Food","Bars","Venues&EventSpaces","Nightlife","Breweries","American(Traditional)","EventPlanning&Services"],"hours":{"Tuesday":"12:0-20:0","Wednesday":"12:0-20:0","Thursday":"12:0-20:0","Friday":"12:0-20:0","Saturday":"12:0-20:0"}},{"business_id":"pXj9QQVummN5ANuseK4CvQ","name":"All Star Pizza Bar","address":"204 Cambridge St","city":"Boston","state":"MA","postal_code":"02114","latitude":42.360852,"longitude":-71.0659104,"stars":4.5,"review_count":87,"is_open":0,"attributes":{"BikeParking":"True","BusinessAcceptsCreditCards":"True","GoodForKids":"True","RestaurantsDelivery":"True","HasTV":"True","WiFi":"'no'","RestaurantsGoodForGroups":"True","RestaurantsAttire":"'casual'","RestaurantsPriceRange2":"1","RestaurantsTakeOut":"True"},"categories":["Pizza","Restaurants"],"hours":{"Monday":"11:0-22:0","Tuesday":"11:0-22:0","Wednesday":"11:0-22:0","Thursday":"11:0-22:0","Friday":"11:0-22:0","Saturday":"11:0-22:0","Sunday":"11:0-22:0"}},{"business_id":"2Puvh1tZnbEuIimMv0hJ5Q","name":"Maluken & Sushi Express","address":"1038 Beacon St","city":"Brookline","state":"MA","postal_code":"02446","latitude":42.3460215075,"longitude":-71.1082483547,"stars":3.5,"review_count":169,"is_open":1,"attributes":{"RestaurantsPriceRange2":"2","BusinessAcceptsCreditCards":"True","RestaurantsTakeOut":"True","RestaurantsAttire":"'casual'","RestaurantsDelivery":"True","WiFi":"u'no'","NoiseLevel":"u'quiet'","GoodForKids":"True","Caters":"True","BikeParking":"True","BYOBCorkage":"'yes_free'"},"categories":["Soup","SushiBars","Restaurants","Japanese"],"hours":{"Monday":"12:0-22:30","Tuesday":"12:0-22:30","Wednesday":"12:0-22:30","Thursday":"12:0-22:30","Friday":"12:0-23:0","Saturday":"12:0-23:0","Sunday":"12:0-22:30"}},{"business_id":"87f7kR7nTz8WHnmtLM_S6w","name":"O Ya","address":"9 East St Pl","city":"Boston","state":"MA","postal_code":"02111","latitude":42.3514083136,"longitude":-71.0568666458,"stars":4.5,"review_count":737,"is_open":1,"attributes":{"RestaurantsPriceRange2":"4","RestaurantsAttire":"u'dressy'","RestaurantsReservations":"True","Alcohol":"'beer_and_wine'","BYOBCorkage":"'no'","NoiseLevel":"u'average'","BusinessAcceptsCreditCards":"True","BYOB":"True","RestaurantsTableService":"True","WheelchairAccessible":"True","Corkage":"True","WiFi":"'no'"},"categories":["Japanese","SushiBars","Restaurants"],"hours":{"Tuesday":"17:0-21:30","Wednesday":"17:0-21:30","Thursday":"17:0-21:30","Friday":"17:0-22:0","Saturday":"17:0-22:0"}},{"business_id":"yQL8SrSETbbCI1U5esVJQw","name":"Ciao! Pizza & Pasta","address":"59 Williams St","city":"Chelsea","state":"MA","postal_code":"02150","latitude":42.3892206,"longitude":-71.0408823,"stars":5.0,"review_count":733,"is_open":1,"attributes":{"GoodForKids":"True","RestaurantsPriceRange2":"2","NoiseLevel":"u'average'","WiFi":"u'no'","RestaurantsTakeOut":"True","RestaurantsAttire":"u'casual'","WheelchairAccessible":"True","OutdoorSeating":"True","Alcohol":"'beer_and_wine'","BusinessAcceptsCreditCards":"True"},"categories":["Restaurants","Pizza","Italian"],"hours":{"Tuesday":"11:0-21:0","Wednesday":"11:0-21:0","Thursday":"11:0-22:0","Friday":"11:0-22:0","Saturday":"12:0-22:0","Sunday":"12:0-21:0"}},{"business_id":"_-nynGfhsMVVWWbAZ6YhTw","name":"The Jury Room","address":"39 Cottage Ave","city":"Quincy","state":"MA","postal_code":"02269","latitude":42.2491183,"longitude":-71.0010707,"stars":3.0,"review_count":30,"is_open":0,"attributes":{"RestaurantsReservations":"True","BusinessAcceptsCreditCards":"True","RestaurantsTakeOut":"True","RestaurantsGoodForGroups":"True","RestaurantsPriceRange2":"2","RestaurantsAttire":"'casual'","Alcohol":"'full_bar'"},"categories":["Restaurants","American(New)","Nightlife"],"hours":{"Monday":"11:30-1:0","Tuesday":"11:30-1:0","Wednesday":"11:30-1:0","Thursday":"11:30-1:0","Friday":"11:30-1:0","Saturday":"11:30-1:0"}}]